{
  "peaks": [
    {
      "type": "node",
      "id": 26862551,
      "lat": 42.888256,
      "lon": -1.9801879,
      "tags": {
        "ele": "1493",
        "name": "Beriain",
        "natural": "peak",
        "wikidata": "Q3756086"
      }
    },
    {
      "type": "node",
      "id": 26864154,
      "lat": 43.021941,
      "lon": -1.2759637,
      "tags": {
        "ele": "1566",
        "ign:latitud": "43.0219416294480013",
        "ign:longitud": "-1.2759745644170000",
        "ign:red": "Red Geodesica Nacional Convencional (ROI)",
        "man_made": "survey_point",
        "name": "Ortzantzurieta",
        "natural": "peak",
        "note": "This is a point from an official geodetic network. Use it as a reference, but do NOT move it.",
        "ref": "9171",
        "source": "Instituto Geográfico Nacional",
        "source:ref": "ftp://ftp.geodesia.ign.es",
        "wikidata": "Q8538854"
      }
    },
    {
      "type": "node",
      "id": 26864202,
      "lat": 42.7122555,
      "lon": -1.4299117,
      "tags": { "ele": "1361", "name": "Peña Itzaga", "natural": "peak" }
    },
    {
      "type": "node",
      "id": 26864262,
      "lat": 42.9885511,
      "lon": -1.0061019,
      "tags": {
        "description": "Borne en ciment gravée IGN et 1948, recouverte d'un socle et d'un pilier cylindrique en béton - Support en mauvais état, point exploitable en 2004",
        "ele": "2017",
        "man_made": "survey_point",
        "name": "Orhi",
        "name:es": "Monte Ori",
        "name:eu": "Orhi mendia",
        "name:fr": "Pic d'Orhy",
        "natural": "peak",
        "note": "Ne pas déplacer ce point, cf. - Do not move this node, see - http://wiki.openstreetmap.org/wiki/WikiProject_France/Repères_Géodésiques#Permanence_des_repères",
        "note:2": "Keep the bilingual name (es+fr) on this boundary node",
        "prominence": "601",
        "ref": "6431601 - 1",
        "source": "©IGN 2010 dans le cadre de la cartographie réglementaire",
        "url": "http://geodesie.ign.fr/fiches/index.php?module=e&action=fichepdf&source=carte&sit_no=6431601",
        "wikidata": "Q2030404"
      }
    },
    {
      "type": "node",
      "id": 32968586,
      "lat": 43.246883,
      "lon": -1.7907545,
      "tags": {
        "alt_name": "Biandiz",
        "ele": "840",
        "gml_featuretype": "VerticeRedRegente",
        "ideewfs:alturaElipsoidal": "894.489013671875",
        "ideewfs:convergencia": "0.82857468837882",
        "ideewfs:factorEscala": "0.9997185481",
        "ideewfs:husoUTM": "30",
        "ideewfs:latitud": "43.2468747055555",
        "ideewfs:longitud": "-1.79075112777778",
        "ideewfs:nombre": "Biandiz",
        "ideewfs:numeroROI": "6514",
        "ideewfs:xUTM": "598168.815",
        "ideewfs:yUTM": "4788940.231",
        "man_made": "survey_point",
        "name": "Bianditz",
        "natural": "peak",
        "note": "This is a point from an official geodetic network. Use it as a reference, but do NOT move it.",
        "ref:RRG": "RRG_39",
        "source": "IDEE",
        "source:filename": "Geodesia - Red Regente_-18.75587_27.36158_4.36897_43.81842.gml",
        "source:name": "Infraestructura de Datos Espaciales de España",
        "source:url": "http://www.idee.es",
        "wikidata": "Q8247449"
      }
    },
    {
      "type": "node",
      "id": 32968642,
      "lat": 43.0675244,
      "lon": -1.7296466,
      "tags": {
        "alt_name": "Sorachipi",
        "ele": "1069",
        "gml_featuretype": "VerticeRedRegente",
        "ideewfs:alturaElipsoidal": "1119.79699707031",
        "ideewfs:convergencia": "0.86755006032647",
        "ideewfs:factorEscala": "0.9997316051",
        "ideewfs:husoUTM": "30",
        "ideewfs:latitud": "43.0675244638889",
        "ideewfs:longitud": "-1.72964645833333",
        "ideewfs:nombre": "Sorachipi",
        "ideewfs:numeroROI": "9034",
        "ideewfs:xUTM": "603431.552",
        "ideewfs:yUTM": "4769096.375",
        "man_made": "survey_point",
        "name": "Soratxipi",
        "natural": "peak",
        "note": "This is a point from an official geodetic network. Use it as a reference, but do NOT move it.",
        "ref:RRG": "RRG_54",
        "source": "IDEE",
        "source:filename": "Geodesia - Red Regente_-18.75587_27.36158_4.36897_43.81842.gml",
        "source:name": "Infraestructura de Datos Espaciales de España",
        "source:url": "http://www.idee.es"
      }
    },
    {
      "type": "node",
      "id": 32968659,
      "lat": 42.9301468,
      "lon": -1.3236141,
      "tags": {
        "ele": "1338.35",
        "gml_featuretype": "VerticeRedRegente",
        "ideewfs:alturaElipsoidal": "1438.35498046875",
        "ideewfs:convergencia": "1.14197347010493",
        "ideewfs:factorEscala": "0.9998302138",
        "ideewfs:husoUTM": "30",
        "ideewfs:latitud": "42.9301468",
        "ideewfs:longitud": "-1.32361404166667",
        "ideewfs:nombre": "Corona",
        "ideewfs:numeroROI": "11655",
        "ideewfs:xUTM": "636795.584",
        "ideewfs:yUTM": "4754421.006",
        "man_made": "survey_point",
        "name": "Corona",
        "natural": "peak",
        "note": "This is a point from an official geodetic network. Use it as a reference, but do NOT move it.",
        "ref:RRG": "RRG_70",
        "source": "IDEE",
        "source:filename": "Geodesia - Red Regente_-18.75587_27.36158_4.36897_43.81842.gml",
        "source:name": "Infraestructura de Datos Espaciales de España",
        "source:ref": "http://www.idee.es"
      }
    },
    {
      "type": "node",
      "id": 32968666,
      "lat": 42.7324215,
      "lon": -1.7028794,
      "tags": {
        "ele": "1033.82",
        "gml_featuretype": "VerticeRedRegente",
        "ideewfs:alturaElipsoidal": "1085.17102050781",
        "ideewfs:convergencia": "0.88027617883494",
        "ideewfs:factorEscala": "0.999738715",
        "ideewfs:husoUTM": "30",
        "ideewfs:latitud": "42.7324215222222",
        "ideewfs:longitud": "-1.70287940555556",
        "ideewfs:nombre": "Perdon 2",
        "ideewfs:numeroROI": "14102",
        "ideewfs:xUTM": "606184.514",
        "ideewfs:yUTM": "4731917.05",
        "name": "Perdon 2",
        "natural": "peak",
        "note": "This is a point from an official geodetic network. Use it as a reference, but do NOT move it.",
        "ref:RRG": "RRG_84",
        "source": "IDEE",
        "source:filename": "Geodesia - Red Regente_-18.75587_27.36158_4.36897_43.81842.gml",
        "source:name": "Infraestructura de Datos Espaciales de España",
        "source:ref": "http://www.idee.es"
      }
    },
    {
      "type": "node",
      "id": 32968684,
      "lat": 42.6241275,
      "lon": -1.3633541,
      "tags": {
        "ele": "884",
        "gml_featuretype": "VerticeRedRegente",
        "ideewfs:alturaElipsoidal": "934.911010742188",
        "ideewfs:convergencia": "1.10847853195981",
        "ideewfs:factorEscala": "0.999821616",
        "ideewfs:husoUTM": "30",
        "ideewfs:latitud": "42.6241275388889",
        "ideewfs:longitud": "-1.363354075",
        "ideewfs:nombre": "Olaz©",
        "ideewfs:numeroROI": "17446",
        "ideewfs:xUTM": "634212.109",
        "ideewfs:yUTM": "4720374.44",
        "man_made": "survey_point",
        "name": "Olatz",
        "natural": "peak",
        "note": "This is a point from an official geodetic network. Use it as a reference, but do NOT move it.",
        "ref:RRG": "RRG_103",
        "source": "IDEE",
        "source:filename": "Geodesia - Red Regente_-18.75587_27.36158_4.36897_43.81842.gml",
        "source:name": "Infraestructura de Datos Espaciales de España",
        "source:ref": "http://www.idee.es"
      }
    },
    {
      "type": "node",
      "id": 32968685,
      "lat": 42.7348272,
      "lon": -1.2753821,
      "tags": {
        "ele": "825",
        "gml_featuretype": "VerticeRedRegente",
        "ideewfs:alturaElipsoidal": "824.992980957031",
        "ideewfs:convergencia": "1.17052928761545",
        "ideewfs:factorEscala": "0.9998452034",
        "ideewfs:husoUTM": "30",
        "ideewfs:latitud": "42.7348271777778",
        "ideewfs:longitud": "-1.27538211388889",
        "ideewfs:nombre": "Muru",
        "ideewfs:numeroROI": "14274",
        "ideewfs:xUTM": "641175.465",
        "ideewfs:yUTM": "4732810.559",
        "man_made": "survey_point",
        "name": "Muru",
        "natural": "peak",
        "note": "This is a point from an official geodetic network. Use it as a reference, but do NOT move it.",
        "ref:RRG": "RRG_86",
        "source": "IDEE",
        "source:filename": "Geodesia - Red Regente_-18.75587_27.36158_4.36897_43.81842.gml",
        "source:name": "Infraestructura de Datos Espaciales de España",
        "source:ref": "http://www.idee.es"
      }
    },
    {
      "type": "node",
      "id": 32968689,
      "lat": 42.4234483,
      "lon": -2.1229913,
      "tags": {
        "ele": "493.130004882813",
        "gml_featuretype": "VerticeRedRegente",
        "ideewfs:alturaElipsoidal": "493.130004882813",
        "ideewfs:convergencia": "0.59165949828453",
        "ideewfs:factorEscala": "0.9996640445",
        "ideewfs:husoUTM": "30",
        "ideewfs:latitud": "42.4234483555556",
        "ideewfs:longitud": "-2.12299131944445",
        "ideewfs:nombre": "Castillar II",
        "ideewfs:numeroROI": "20515",
        "ideewfs:xUTM": "572148.506",
        "ideewfs:yUTM": "4697165.468",
        "man_made": "survey_point",
        "name": "Castillar II",
        "natural": "peak",
        "note": "This is a point from an official geodetic network. Use it as a reference, but do NOT move it.",
        "ref:RRG": "RRG_126",
        "source": "IDEE",
        "source:filename": "Geodesia - Red Regente_-18.75587_27.36158_4.36897_43.81842.gml",
        "source:name": "Infraestructura de Datos Espaciales de España",
        "source:ref": "http://www.idee.es"
      }
    },
    {
      "type": "node",
      "id": 32968785,
      "lat": 42.4430223,
      "lon": -1.3836805,
      "tags": {
        "ele": "593",
        "gml_featuretype": "VerticeRedRegente",
        "ideewfs:alturaElipsoidal": "644.286010742188",
        "ideewfs:convergencia": "1.09094337410865",
        "ideewfs:factorEscala": "0.9998174073",
        "ideewfs:husoUTM": "30",
        "ideewfs:latitud": "42.4430222833333",
        "ideewfs:longitud": "-1.38368046944444",
        "ideewfs:nombre": "Pinar de Caseda",
        "ideewfs:numeroROI": "20746",
        "ideewfs:xUTM": "632928.841",
        "ideewfs:yUTM": "4700231.898",
        "man_made": "survey_point",
        "name": "Pinar de Caseda",
        "natural": "peak",
        "note": "This is a point from an official geodetic network. Use it as a reference, but do NOT move it.",
        "ref:RRG": "RRG_128",
        "source": "IDEE",
        "source:filename": "Geodesia - Red Regente_-18.75587_27.36158_4.36897_43.81842.gml",
        "source:name": "Infraestructura de Datos Espaciales de España",
        "source:ref": "http://www.idee.es",
        "wikidata": "Q23993826"
      }
    },
    {
      "type": "node",
      "id": 252272658,
      "lat": 42.8342228,
      "lon": -1.4501619,
      "tags": {
        "ele": "558",
        "name": "Zalba",
        "natural": "peak",
        "population": "27",
        "population:date": "2009",
        "ref:ine": "31156001600",
        "source": "Instituto Geográfico Nacional",
        "source:date": "2011-06",
        "source:ele": "MDT5",
        "source:file": "http://centrodedescargas.cnig.es/CentroDescargas/equipamiento/BD_Municipios-Entidades.zip",
        "source:name": "Nomenclátor Geográfico de Municipios y Entidades de Población"
      }
    },
    {
      "type": "node",
      "id": 255036483,
      "lat": 43.3090371,
      "lon": -1.635508,
      "tags": {
        "ele": "905",
        "name": "La Rhune",
        "name:eu": "Larhun",
        "name:fr": "La Rhune",
        "natural": "peak",
        "prominence": "683",
        "source:prominence": "http://www.peakbagger.com/list.aspx?lid=4381",
        "tourism": "attraction",
        "wikidata": "Q2737839"
      }
    },
    {
      "type": "node",
      "id": 510139355,
      "lat": 42.6513998,
      "lon": -2.3003341,
      "tags": { "ele": "1234", "name": "Costalera", "natural": "peak" }
    },
    {
      "type": "node",
      "id": 575724365,
      "lat": 42.4204351,
      "lon": -1.4636574,
      "tags": {
        "ele": "634",
        "name": "Alto de las Pilas",
        "natural": "peak",
        "source": "Instituto Geográfico Nacional",
        "source:date": "201011"
      }
    },
    {
      "type": "node",
      "id": 575768409,
      "lat": 42.0147452,
      "lon": -1.8670994,
      "tags": {
        "name": "Alto de Lamores",
        "natural": "peak",
        "source": "Instituto Geográfico Nacional",
        "source:date": "201011"
      }
    },
    {
      "type": "node",
      "id": 575796475,
      "lat": 42.5092974,
      "lon": -1.621832,
      "tags": {
        "name": "Alto de La Falconera",
        "natural": "peak",
        "source": "Instituto Geográfico Nacional",
        "source:date": "201011"
      }
    },
    {
      "type": "node",
      "id": 575865261,
      "lat": 42.6336291,
      "lon": -1.6591048,
      "tags": {
        "name": "Alto de Aramendia",
        "natural": "peak",
        "source": "Instituto Geográfico Nacional",
        "source:date": "201011"
      }
    },
    {
      "type": "node",
      "id": 575865267,
      "lat": 42.6524459,
      "lon": -1.6133779,
      "tags": {
        "ele": "945",
        "name": "Artatxu",
        "natural": "peak",
        "source": "Instituto Geográfico Nacional",
        "source:date": "201011"
      }
    },
    {
      "type": "node",
      "id": 575880101,
      "lat": 42.8475706,
      "lon": -1.4267161,
      "tags": {
        "name": "Alto de la Bandera",
        "natural": "peak",
        "source": "Instituto Geográfico Nacional",
        "source:date": "201011"
      }
    },
    {
      "type": "node",
      "id": 575880315,
      "lat": 42.9409959,
      "lon": -1.3338689,
      "tags": {
        "name": "Alto de Xurize",
        "natural": "peak",
        "source": "Instituto Geográfico Nacional",
        "source:date": "201011"
      }
    },
    {
      "type": "node",
      "id": 576002163,
      "lat": 42.6015851,
      "lon": -2.1821466,
      "tags": {
        "name": "Peñas Blancas",
        "natural": "peak",
        "source": "Instituto Geográfico Nacional",
        "source:date": "201011"
      }
    },
    {
      "type": "node",
      "id": 576670273,
      "lat": 42.6773216,
      "lon": -2.0109799,
      "tags": {
        "name": "Alto de Gurugú",
        "natural": "peak",
        "source": "Instituto Geográfico Nacional",
        "source:date": "201011"
      }
    },
    {
      "type": "node",
      "id": 576780100,
      "lat": 42.5267525,
      "lon": -1.6227629,
      "tags": {
        "name": "Altos de Pozuelo",
        "natural": "peak",
        "source": "Instituto Geográfico Nacional",
        "source:date": "201011"
      }
    },
    {
      "type": "node",
      "id": 576780453,
      "lat": 43.1757572,
      "lon": -1.6277885,
      "tags": {
        "alt_name": "Sarasola",
        "ele": "637",
        "name": "Iñarmeakako Kaskoa",
        "natural": "peak",
        "source": "Instituto Geográfico Nacional",
        "source:date": "201011"
      }
    },
    {
      "type": "node",
      "id": 670195083,
      "lat": 43.0294513,
      "lon": -1.3598479,
      "tags": {
        "description": "Borne Espagnole en ciment - Point vu en place en 2004",
        "ele": "1220.52",
        "name": "Lindus",
        "natural": "peak",
        "note": "Ne pas déplacer ce point, cf. - Do not move this node, see - http://wiki.openstreetmap.org/wiki/WikiProject_France/Repères_Géodésiques#Permanence_des_rep.C3.A8res",
        "ref": "6409203 - A",
        "source": "©IGN 2010 dans le cadre de la cartographie réglementaire",
        "url": "http://geodesie.ign.fr/fiches/index.php?module=e&action=fichepdf&source=carte&sit_no=6409203"
      }
    },
    {
      "type": "node",
      "id": 670195085,
      "lat": 43.0543571,
      "lon": -1.3429733,
      "tags": {
        "alt_name": "Laurigna",
        "description": "Borne en granit gravée IGN et 1949 - Point vu en place en 2004",
        "ele": "1277.91",
        "man_made": "survey_point",
        "name": "Laurinaga",
        "natural": "peak",
        "note": "Ne pas déplacer ce point, cf. - Do not move this node, see - http://wiki.openstreetmap.org/wiki/WikiProject_France/Repères_Géodésiques#Permanence_des_rep.C3.A8res",
        "ref": "6409204 - 1",
        "source": "©IGN 2010 dans le cadre de la cartographie réglementaire",
        "url": "http://geodesie.ign.fr/fiches/index.php?module=e&action=fichepdf&source=carte&sit_no=6409204"
      }
    },
    {
      "type": "node",
      "id": 670195088,
      "lat": 43.1634341,
      "lon": -1.4042347,
      "tags": {
        "description": "Borne frontière : Axe et sommet - Point vu en place en 2004",
        "ele": "926.2",
        "man_made": "survey_point",
        "name": "Aldaburu",
        "natural": "peak",
        "note": "Ne pas déplacer ce point, cf. - Do not move this node, see - http://wiki.openstreetmap.org/wiki/WikiProject_France/Repères_Géodésiques#Permanence_des_rep.C3.A8res",
        "ref": "64092B - 1",
        "source": "©IGN 2010 dans le cadre de la cartographie réglementaire",
        "url": "http://geodesie.ign.fr/fiches/index.php?module=e&action=fichepdf&source=carte&sit_no=64092B"
      }
    },
    {
      "type": "node",
      "id": 670195245,
      "lat": 43.2692391,
      "lon": -1.4206219,
      "tags": {
        "description": "Borne frontière No79 : Axe et sommet - Point vu en place en 1986",
        "ele": "844.8",
        "man_made": "survey_point",
        "name": "Iguzki",
        "natural": "peak",
        "note": "Ne pas déplacer ce point, cf. - Do not move this node, see - http://wiki.openstreetmap.org/wiki/WikiProject_France/Repères_Géodésiques#Permanence_des_rep.C3.A8res",
        "ref": "64124B - 1",
        "source": "©IGN 2010 dans le cadre de la cartographie réglementaire",
        "url": "http://geodesie.ign.fr/fiches/index.php?module=e&action=fichepdf&source=carte&sit_no=64124B"
      }
    },
    {
      "type": "node",
      "id": 670195246,
      "lat": 43.2692391,
      "lon": -1.4206219,
      "tags": {
        "description": "Mugarrien 79. zenbakia Borne frontière #79 : Axe et base - Point vu en place en 1986",
        "ele": "843.7",
        "historic": "boundary_stone",
        "man_made": "survey_point",
        "name": "Iguzki",
        "name:eu": "Mugarrien 79. zenbakia",
        "name:fr": "Borne frontière #79",
        "natural": "peak",
        "note": "Ne pas déplacer ce point, cf. - Do not move this node, see - http://wiki.openstreetmap.org/wiki/WikiProject_France/Repères_Géodésiques#Permanence_des_rep.C3.A8res",
        "ref": "64124B - 2",
        "source": "©IGN 2010 dans le cadre de la cartographie réglementaire",
        "url": "http://geodesie.ign.fr/fiches/index.php?module=e&action=fichepdf&source=carte&sit_no=64124B"
      }
    },
    {
      "type": "node",
      "id": 670195279,
      "lat": 43.2999158,
      "lon": -1.7137306,
      "tags": {
        "description": "Borne frontière No7 - Point vu en place en 1979",
        "ele": "457.8",
        "man_made": "survey_point",
        "name": "Akozpe",
        "natural": "peak",
        "note": "Ne pas déplacer ce point, cf. - Do not move this node, see - http://wiki.openstreetmap.org/wiki/WikiProject_France/Repères_Géodésiques#Permanence_des_rep.C3.A8res",
        "ref": "64130A - 1",
        "source": "©IGN 2010 dans le cadre de la cartographie réglementaire",
        "url": "http://geodesie.ign.fr/fiches/index.php?module=e&action=fichepdf&source=carte&sit_no=64130A"
      }
    },
    {
      "type": "node",
      "id": 670505894,
      "lat": 43.2557234,
      "lon": -1.5695687,
      "tags": {
        "alt_name": "Atxuria",
        "comment": "Haitz xuria or Harri xuria",
        "description": "Borne en granit gravée IGN - Point vu en place en 1964",
        "ele": "759",
        "loc_name": "Arxuria",
        "man_made": "survey_point",
        "name": "Arxuria",
        "name:es": "Peña Plata",
        "natural": "peak",
        "note": "Ne pas déplacer ce point, cf. - Do not move this node, see - http://wiki.openstreetmap.org/wiki/WikiProject_France/Repères_Géodésiques#Permanence_des_rep.C3.A8res",
        "ref": "6450404 - 1",
        "source": "©IGN 2010 dans le cadre de la cartographie réglementaire",
        "url": "http://geodesie.ign.fr/fiches/index.php?module=e&action=fichepdf&source=carte&sit_no=6450404"
      }
    },
    {
      "type": "node",
      "id": 670506068,
      "lat": 43.0462731,
      "lon": -1.441254,
      "tags": {
        "alt_name": "Izterbegi, Isterbegiko kaskoa",
        "description": "Borne en granit gravée IGN et 1949 - Point vu en place en 2004",
        "ele": "1027.19",
        "man_made": "survey_point",
        "name": "Isterbegi",
        "natural": "peak",
        "note": "Ne pas déplacer ce point, cf. - Do not move this node, see - http://wiki.openstreetmap.org/wiki/WikiProject_France/Repères_Géodésiques#Permanence_des_rep.C3.A8res",
        "ref": "6454301 - 1",
        "source": "©IGN 2010 dans le cadre de la cartographie réglementaire",
        "url": "http://geodesie.ign.fr/fiches/index.php?module=e&action=fichepdf&source=carte&sit_no=6454301",
        "wikidata": "Q12260004"
      }
    },
    {
      "type": "node",
      "id": 670506083,
      "lat": 43.3091484,
      "lon": -1.7033542,
      "tags": {
        "alt_name": "Manddale",
        "description": "Borne en granit gravée IGN et 1961 - Point vu en place en 1964",
        "ele": "574",
        "man_made": "survey_point",
        "name": "Manttale",
        "natural": "peak",
        "note": "Ne pas déplacer ce point, cf. - Do not move this node, see - http://wiki.openstreetmap.org/wiki/WikiProject_France/Repères_Géodésiques#Permanence_des_rep.C3.A8res",
        "ref": "6454504 - 1",
        "source": "©IGN 2010 dans le cadre de la cartographie réglementaire",
        "url": "http://geodesie.ign.fr/fiches/index.php?module=e&action=fichepdf&source=carte&sit_no=6454504",
        "wikidata": "Q20492382"
      }
    },
    {
      "type": "node",
      "id": 706153474,
      "lat": 43.3080369,
      "lon": -1.6481682,
      "tags": {
        "ele": "699.82",
        "man_made": "cairn",
        "name": "Larrun Txiki",
        "name:eu": "Larruntxiki",
        "name:fr": "La Petite Rhune",
        "natural": "peak"
      }
    },
    {
      "type": "node",
      "id": 733817074,
      "lat": 42.9671622,
      "lon": -0.7516765,
      "tags": {
        "ele": "2044",
        "name": "Arlas",
        "name:eu": "Arlas",
        "name:fr": "Pic d'Arlas",
        "natural": "peak",
        "wikidata": "Q2024489",
        "wikipedia": "eu:Arlas"
      }
    },
    {
      "type": "node",
      "id": 745562325,
      "lat": 43.1943265,
      "lon": -1.3866445,
      "tags": {
        "alt_name": "Laurdena / Laourdena",
        "alt_name2": "Ubedo",
        "alt_name:es": "Laurdena",
        "alt_name:fr": "Lauordena",
        "ele": "1029",
        "name": "Buztanzelai / Buztanzelhay",
        "name:es": "Buztanzelai",
        "name:eu": "Buztanzelai",
        "name:fr": "Buztanzelhay",
        "natural": "peak",
        "source": "survey"
      }
    },
    {
      "type": "node",
      "id": 745913484,
      "lat": 43.1995437,
      "lon": -1.3828896,
      "tags": {
        "ele": "1022",
        "name": "Astate",
        "natural": "peak",
        "source": "survey"
      }
    },
    {
      "type": "node",
      "id": 788356319,
      "lat": 42.9638937,
      "lon": -0.9057634,
      "tags": {
        "alt_name": "Chardekagagna",
        "ele": "1893",
        "name": "Sardekagaina",
        "name:eu": "Xardekagaiña",
        "name:fr": "Pic Chardéca",
        "natural": "peak"
      }
    },
    {
      "type": "node",
      "id": 850900643,
      "lat": 43.1896866,
      "lon": -1.3814154,
      "tags": {
        "alt_name": "Pausugaiztoko kaskoa, Ahintziaga",
        "comment": "former Ahinziaga for A(r)haintze-aga",
        "ele": "905",
        "name": "Aintziaga",
        "natural": "peak",
        "wikidata": "Q2827423"
      }
    },
    {
      "type": "node",
      "id": 877628893,
      "lat": 43.0465902,
      "lon": -1.2404794,
      "tags": {
        "ele": "1423",
        "name": "Urkulu",
        "natural": "peak",
        "wikidata": "Q590012",
        "wikipedia": "en:Urkulu"
      }
    },
    {
      "type": "node",
      "id": 885192240,
      "lat": 43.2237381,
      "lon": -1.3831187,
      "tags": {
        "ele": "1040",
        "historic": "boundary_stone",
        "name": "Hego Iparla",
        "name:fr": "Iparla Sud",
        "natural": "peak"
      }
    },
    {
      "type": "node",
      "id": 885193232,
      "lat": 43.2030912,
      "lon": -1.3830151,
      "tags": {
        "alt_name": "Ipar-Astate",
        "ele": "987.92",
        "name": "Atalazko Kaskoa",
        "name:fr": "Astaté Nord",
        "natural": "peak"
      }
    },
    {
      "type": "node",
      "id": 897565387,
      "lat": 42.9525155,
      "lon": -1.9640224,
      "tags": {
        "ele": "1345",
        "name": "Artxueta",
        "natural": "peak",
        "wikidata": "Q12254240"
      }
    },
    {
      "type": "node",
      "id": 920883469,
      "lat": 43.104867,
      "lon": -1.4484317,
      "tags": { "ele": "860.08", "name": "Zarkindegi", "natural": "peak" }
    },
    {
      "type": "node",
      "id": 920894672,
      "lat": 43.0699306,
      "lon": -1.4737121,
      "tags": {
        "alt_name": "Autringo Mendi",
        "ele": "978",
        "name": "Azaldegi",
        "natural": "peak"
      }
    },
    {
      "type": "node",
      "id": 948491810,
      "lat": 42.787713,
      "lon": -0.9810705,
      "tags": {
        "ele": "1199.80",
        "ign:latitud": "42.7877129876588995",
        "ign:longitud": "-0.9810704909960000",
        "ign:red": "Red Geodesica Nacional Convencional (ROI)",
        "man_made": "survey_point",
        "name": "Argible",
        "natural": "peak",
        "note": "This is a point from an official geodetic network. Use it as a reference, but do NOT move it.",
        "ref": "14367",
        "source": "Instituto Geográfico Nacional",
        "source:ref": "ftp://ftp.geodesia.ign.es"
      }
    },
    {
      "type": "node",
      "id": 948491941,
      "lat": 42.3505269,
      "lon": -2.0804443,
      "tags": {
        "ele": "474.00",
        "ign:latitud": "42.3505269372080022",
        "ign:longitud": "-2.0804442723270000",
        "ign:red": "Red Geodesica Nacional Convencional (ROI)",
        "man_made": "survey_point",
        "name": "Monte Alto",
        "natural": "peak",
        "note": "This is a point from an official geodetic network. Use it as a reference, but do NOT move it.",
        "ref": "20531",
        "source": "Instituto Geográfico Nacional",
        "source:ref": "ftp://ftp.geodesia.ign.es"
      }
    },
    {
      "type": "node",
      "id": 948492126,
      "lat": 42.1386669,
      "lon": -1.4004109,
      "tags": {
        "alt_name": "Nasa Alta",
        "ele": "629.20",
        "ign:latitud": "42.1386669411919002",
        "ign:longitud": "-1.4004108717929900",
        "ign:red": "Red Geodesica Nacional Convencional (ROI)",
        "man_made": "survey_point",
        "name": "Tripa Azul",
        "natural": "peak",
        "note": "This is a point from an official geodetic network. Use it as a reference, but do NOT move it.",
        "ref": "28338",
        "source": "Instituto Geográfico Nacional",
        "source:ref": "ftp://ftp.geodesia.ign.es",
        "wikidata": "Q23991279"
      }
    },
    {
      "type": "node",
      "id": 948492176,
      "lat": 42.7206003,
      "lon": -2.1225964,
      "tags": {
        "ele": "1109.50",
        "ign:latitud": "42.7206002563000027",
        "ign:longitud": "-2.1225963865000002",
        "ign:red": "Red Geodesica Nacional Convencional (ROI)",
        "man_made": "survey_point",
        "name": "Sartzaleta",
        "natural": "peak",
        "note": "This is a point from an official geodetic network. Use it as a reference, but do NOT move it.",
        "ref": "14013",
        "source": "Instituto Geográfico Nacional",
        "source:ref": "ftp://ftp.geodesia.ign.es"
      }
    },
    {
      "type": "node",
      "id": 948492213,
      "lat": 42.371274,
      "lon": -1.9619503,
      "tags": {
        "ele": "427.10",
        "ign:latitud": "42.3712739549999000",
        "ign:longitud": "-1.9619502683000001",
        "ign:red": "Red Geodesica Nacional Convencional (ROI)",
        "man_made": "survey_point",
        "name": "Canales",
        "natural": "peak",
        "note": "This is a point from an official geodetic network. Use it as a reference, but do NOT move it.",
        "ref": "20562",
        "source": "Instituto Geográfico Nacional",
        "source:ref": "ftp://ftp.geodesia.ign.es"
      }
    },
    {
      "type": "node",
      "id": 948492264,
      "lat": 42.9704002,
      "lon": -2.0567401,
      "tags": {
        "ele": "1299",
        "ign:latitud": "42.9704001821828996",
        "ign:longitud": "-2.0567401407979902",
        "ign:red": "Red Geodesica Nacional Convencional (ROI)",
        "man_made": "survey_point",
        "name": "Puttarri",
        "natural": "peak",
        "note": "This is a point from an official geodetic network. Use it as a reference, but do NOT move it.",
        "old_name": "Putxerri",
        "ref": "11438",
        "source": "Instituto Geográfico Nacional",
        "source:ref": "ftp://ftp.geodesia.ign.es"
      }
    },
    {
      "type": "node",
      "id": 948492403,
      "lat": 42.3897063,
      "lon": -1.8135205,
      "tags": {
        "alt_name": "El Pilón",
        "ele": "445.40",
        "ign:latitud": "42.3897062795188972",
        "ign:longitud": "-1.8135205188800001",
        "ign:red": "Red Geodesica Nacional Convencional (ROI)",
        "man_made": "survey_point",
        "name": "Vedadillo",
        "natural": "peak",
        "note": "This is a point from an official geodetic network. Use it as a reference, but do NOT move it.",
        "ref": "20613",
        "source": "Instituto Geográfico Nacional",
        "source:ref": "ftp://ftp.geodesia.ign.es"
      }
    },
    {
      "type": "node",
      "id": 948492625,
      "lat": 42.927515,
      "lon": -1.6580335,
      "tags": {
        "ele": "804.90",
        "ign:latitud": "42.9275149997048970",
        "ign:longitud": "-1.6580334737989899",
        "ign:red": "Red Geodesica Nacional Convencional (ROI)",
        "man_made": "survey_point",
        "name": "Txutxurro",
        "natural": "peak",
        "note": "This is a point from an official geodetic network. Use it as a reference, but do NOT move it.",
        "ref": "11555",
        "source": "Instituto Geográfico Nacional",
        "source:ref": "ftp://ftp.geodesia.ign.es"
      }
    },
    {
      "type": "node",
      "id": 948492695,
      "lat": 43.0251069,
      "lon": -1.9196549,
      "tags": {
        "ele": "881.40",
        "ign:latitud": "43.0251068298618975",
        "ign:longitud": "-1.9196548779670000",
        "ign:red": "Red Geodesica Nacional Convencional (ROI)",
        "man_made": "survey_point",
        "name": "Atume",
        "natural": "peak",
        "note": "This is a point from an official geodetic network. Use it as a reference, but do NOT move it.",
        "ref": "8971",
        "source": "Instituto Geográfico Nacional",
        "source:ref": "ftp://ftp.geodesia.ign.es"
      }
    },
    {
      "type": "node",
      "id": 948492720,
      "lat": 42.8107983,
      "lon": -1.5542419,
      "tags": {
        "ele": "771.80",
        "ign:latitud": "42.8107456486108973",
        "ign:longitud": "-1.5540380254999899",
        "ign:red": "Red Geodesica Nacional Convencional (ROI)",
        "man_made": "survey_point",
        "name": "Malkaitz",
        "natural": "peak",
        "note": "This is a point from an official geodetic network. Use it as a reference, but do NOT move it.",
        "ref": "14188",
        "source": "Instituto Geográfico Nacional",
        "source:ref": "ftp://ftp.geodesia.ign.es"
      }
    },
    {
      "type": "node",
      "id": 948492832,
      "lat": 42.62128,
      "lon": -1.5179518,
      "tags": {
        "alt_name": "Uzquita",
        "ele": "989.80",
        "ign:latitud": "42.6212800143678976",
        "ign:longitud": "-1.5179517806139899",
        "ign:red": "Red Geodesica Nacional Convencional (ROI)",
        "man_made": "survey_point",
        "name": "Basagaitz",
        "natural": "peak",
        "note": "This is a point from an official geodetic network. Use it as a reference, but do NOT move it.",
        "ref": "17407",
        "source": "Instituto Geográfico Nacional",
        "source:ref": "ftp://ftp.geodesia.ign.es"
      }
    },
    {
      "type": "node",
      "id": 948492932,
      "lat": 43.1560376,
      "lon": -1.753824,
      "tags": {
        "alt_name": "Ecaitza",
        "ele": "1046",
        "ign:latitud": "43.1560425497889000",
        "ign:longitud": "-1.7538213310480000",
        "ign:red": "Red Geodesica Nacional Convencional (ROI)",
        "man_made": "survey_point",
        "name": "Ekaitza",
        "natural": "peak",
        "note": "This is a point from an official geodetic network. Use it as a reference, but do NOT move it.",
        "ref": "9029",
        "source": "Instituto Geográfico Nacional",
        "source:ref": "ftp://ftp.geodesia.ign.es",
        "wikidata": "Q12256603"
      }
    },
    {
      "type": "node",
      "id": 948492956,
      "lat": 42.8276282,
      "lon": -1.4354759,
      "tags": {
        "alt_name": "Izquieta",
        "ele": "842.80",
        "ign:latitud": "42.8276280724900005",
        "ign:longitud": "-1.4354760076999999",
        "ign:red": "Red Geodesica Nacional Convencional (ROI)",
        "man_made": "survey_point",
        "name": "Izkieta",
        "natural": "peak",
        "note": "This is a point from an official geodetic network. Use it as a reference, but do NOT move it.",
        "ref": "14229",
        "source": "Instituto Geográfico Nacional",
        "source:ref": "ftp://ftp.geodesia.ign.es",
        "wikidata": "Q12259990"
      }
    },
    {
      "type": "node",
      "id": 948493014,
      "lat": 43.0289401,
      "lon": -1.5565205,
      "tags": {
        "alt_name": "Suriain",
        "ele": "1410.50",
        "ign:latitud": "43.0289421238138985",
        "ign:longitud": "-1.5565385956980000",
        "ign:red": "Red Geodesica Nacional Convencional (ROI)",
        "man_made": "survey_point",
        "name": "Xuriain",
        "natural": "peak",
        "note": "This is a point from an official geodetic network. Use it as a reference, but do NOT move it.",
        "ref": "9081",
        "source": "Instituto Geográfico Nacional",
        "source:ref": "ftp://ftp.geodesia.ign.es",
        "wikidata": "Q66115215"
      }
    },
    {
      "type": "node",
      "id": 948493097,
      "lat": 42.9588209,
      "lon": -1.1148986,
      "tags": {
        "alt_name": "Alto de Irati",
        "ele": "1494",
        "ign:latitud": "42.9588208200788984",
        "ign:longitud": "-1.1148985992120000",
        "ign:red": "Red Geodesica Nacional Convencional (ROI)",
        "man_made": "survey_point",
        "name": "Abodi Gibel",
        "natural": "peak",
        "note": "This is a point from an official geodetic network. Use it as a reference, but do NOT move it.",
        "ref": "11727",
        "source": "Instituto Geográfico Nacional",
        "source:ref": "ftp://ftp.geodesia.ign.es"
      }
    },
    {
      "type": "node",
      "id": 948493121,
      "lat": 42.5932799,
      "lon": -1.2463978,
      "tags": {
        "ele": "629.40",
        "ign:latitud": "42.5932799097070003",
        "ign:longitud": "-1.2463978086120000",
        "ign:red": "Red Geodesica Nacional Convencional (ROI)",
        "man_made": "survey_point",
        "name": "Ugarte",
        "natural": "peak",
        "note": "This is a point from an official geodetic network. Use it as a reference, but do NOT move it.",
        "ref": "17485",
        "source": "Instituto Geográfico Nacional",
        "source:ref": "ftp://ftp.geodesia.ign.es"
      }
    },
    {
      "type": "node",
      "id": 948493148,
      "lat": 43.090916,
      "lon": -1.4790341,
      "tags": {
        "ele": "1074",
        "ign:latitud": "43.0909154651038975",
        "ign:longitud": "-1.4790844064219899",
        "ign:red": "Red Geodesica Nacional Convencional (ROI)",
        "man_made": "survey_point",
        "name": "Alba",
        "name:es": "Peña de Alba",
        "name:eu": "Alba Haitz",
        "natural": "peak",
        "note": "This is a point from an official geodetic network. Use it as a reference, but do NOT move it.",
        "ref": "9115",
        "source": "Instituto Geográfico Nacional",
        "source:ref": "ftp://ftp.geodesia.ign.es"
      }
    },
    {
      "type": "node",
      "id": 948493165,
      "lat": 42.6082663,
      "lon": -2.4617912,
      "tags": {
        "ele": "1244",
        "ign:latitud": "42.6081874447978990",
        "ign:longitud": "-2.4619308068960000",
        "ign:red": "Red Geodesica Nacional Convencional (ROI)",
        "man_made": "survey_point",
        "name": "Castillo de Lapoblación",
        "natural": "peak",
        "note": "This is a point from an official geodetic network. Use it as a reference, but do NOT move it.",
        "ref": "17116",
        "source": "Instituto Geográfico Nacional",
        "source:ref": "ftp://ftp.geodesia.ign.es",
        "wikidata": "Q12255695"
      }
    },
    {
      "type": "node",
      "id": 948493218,
      "lat": 42.8745096,
      "lon": -2.0853099,
      "tags": {
        "ele": "1182.50",
        "ign:latitud": "42.8745096035570015",
        "ign:longitud": "-2.0853099294709900",
        "ign:red": "Red Geodesica Nacional Convencional (ROI)",
        "man_made": "survey_point",
        "name": "Maiza",
        "natural": "peak",
        "note": "This is a point from an official geodetic network. Use it as a reference, but do NOT move it.",
        "ref": "11422",
        "source": "Instituto Geográfico Nacional",
        "source:ref": "ftp://ftp.geodesia.ign.es"
      }
    },
    {
      "type": "node",
      "id": 948493248,
      "lat": 43.1963258,
      "lon": -1.6905151,
      "tags": {
        "alt_name": "Abelu",
        "ele": "682.20",
        "ign:latitud": "43.1963257478688973",
        "ign:longitud": "-1.6905151976499899",
        "ign:red": "Red Geodesica Nacional Convencional (ROI)",
        "man_made": "survey_point",
        "name": "Apaola",
        "natural": "peak",
        "note": "This is a point from an official geodetic network. Use it as a reference, but do NOT move it.",
        "ref": "6541",
        "source": "Instituto Geográfico Nacional",
        "source:ref": "ftp://ftp.geodesia.ign.es"
      }
    },
    {
      "type": "node",
      "id": 948493264,
      "lat": 42.4671796,
      "lon": -1.8590982,
      "tags": {
        "ele": "550.80",
        "ign:latitud": "42.4671795536768997",
        "ign:longitud": "-1.8590981995160001",
        "ign:red": "Red Geodesica Nacional Convencional (ROI)",
        "man_made": "survey_point",
        "name": "Jenariz",
        "natural": "peak",
        "note": "This is a point from an official geodetic network. Use it as a reference, but do NOT move it.",
        "ref": "20598",
        "source": "Instituto Geográfico Nacional",
        "source:ref": "ftp://ftp.geodesia.ign.es"
      }
    },
    {
      "type": "node",
      "id": 948493269,
      "lat": 42.6920735,
      "lon": -2.0650687,
      "tags": {
        "ele": "769.00",
        "ign:latitud": "42.6920734885000002",
        "ign:longitud": "-2.0650686565999901",
        "ign:red": "Red Geodesica Nacional Convencional (ROI)",
        "man_made": "survey_point",
        "name": "Belastegui",
        "natural": "peak",
        "note": "This is a point from an official geodetic network. Use it as a reference, but do NOT move it.",
        "ref": "14031",
        "source": "Instituto Geográfico Nacional",
        "source:ref": "ftp://ftp.geodesia.ign.es"
      }
    },
    {
      "type": "node",
      "id": 948493283,
      "lat": 42.6337649,
      "lon": -2.1066522,
      "tags": {
        "ele": "893.9",
        "ign:latitud": "42.6337648989038982",
        "ign:longitud": "-2.1066522364710001",
        "ign:red": "Red Geodesica Nacional Convencional (ROI)",
        "man_made": "survey_point",
        "name": "Monjardín / Deio",
        "name:eu": "Deio / Monjardin",
        "natural": "peak",
        "note": "This is a point from an official geodetic network. Use it as a reference, but do NOT move it.",
        "ref": "17228",
        "source": "Instituto Geográfico Nacional",
        "source:ref": "ftp://ftp.geodesia.ign.es"
      }
    },
    {
      "type": "node",
      "id": 948493318,
      "lat": 43.1974805,
      "lon": -1.8901919,
      "tags": {
        "alt_name": "Monte Arano",
        "ele": "572",
        "ign:latitud": "43.1974804798478971",
        "ign:longitud": "-1.8901918820629899",
        "ign:red": "Red Geodesica Nacional Convencional (ROI)",
        "man_made": "survey_point",
        "name": "Aranomendi",
        "natural": "peak",
        "note": "This is a point from an official geodetic network. Use it as a reference, but do NOT move it.",
        "ref": "6481",
        "source": "Instituto Geográfico Nacional",
        "source:ref": "ftp://ftp.geodesia.ign.es",
        "wikidata": "Q24003668"
      }
    },
    {
      "type": "node",
      "id": 948493368,
      "lat": 43.0847716,
      "lon": -1.9694685,
      "tags": {
        "ele": "868.20",
        "ign:latitud": "43.0847667144360003",
        "ign:longitud": "-1.9694878908060001",
        "ign:red": "Red Geodesica Nacional Convencional (ROI)",
        "man_made": "survey_point",
        "name": "Ulizar",
        "natural": "peak",
        "note": "This is a point from an official geodetic network. Use it as a reference, but do NOT move it.",
        "ref": "8965",
        "source": "Instituto Geográfico Nacional",
        "source:ref": "ftp://ftp.geodesia.ign.es"
      }
    },
    {
      "type": "node",
      "id": 948493393,
      "lat": 42.4290349,
      "lon": -1.4931216,
      "tags": {
        "ele": "700.90",
        "ign:latitud": "42.4290349295100029",
        "ign:longitud": "-1.4931215517570000",
        "ign:red": "Red Geodesica Nacional Convencional (ROI)",
        "man_made": "survey_point",
        "name": "Vigas",
        "natural": "peak",
        "note": "This is a point from an official geodetic network. Use it as a reference, but do NOT move it.",
        "ref": "20705",
        "source": "Instituto Geográfico Nacional",
        "source:ref": "ftp://ftp.geodesia.ign.es"
      }
    },
    {
      "type": "node",
      "id": 948493404,
      "lat": 42.8882393,
      "lon": -1.6298505,
      "tags": {
        "alt_name": "Ostiasco",
        "ele": "977.60",
        "ign:latitud": "42.8882392643020012",
        "ign:longitud": "-1.6298504507820000",
        "ign:red": "Red Geodesica Nacional Convencional (ROI)",
        "man_made": "survey_point",
        "name": "Ortxikasko",
        "natural": "peak",
        "note": "This is a point from an official geodetic network. Use it as a reference, but do NOT move it.",
        "ref": "11563",
        "source": "Instituto Geográfico Nacional",
        "source:ref": "ftp://ftp.geodesia.ign.es"
      }
    },
    {
      "type": "node",
      "id": 948493434,
      "lat": 43.144954,
      "lon": -1.9060701,
      "tags": {
        "alt_name": "Auntzbizkarreko Dorrea",
        "ele": "1046",
        "ign:latitud": "43.1449540058348973",
        "ign:longitud": "-1.9060700507710000",
        "ign:red": "Red Geodesica Nacional Convencional (ROI)",
        "man_made": "survey_point",
        "name": "Mandoegi",
        "natural": "peak",
        "note": "This is a point from an official geodetic network. Use it as a reference, but do NOT move it.",
        "ref": "8988",
        "source": "Instituto Geográfico Nacional",
        "source:ref": "ftp://ftp.geodesia.ign.es",
        "wikidata": "Q12262941"
      }
    },
    {
      "type": "node",
      "id": 948493473,
      "lat": 42.8097575,
      "lon": -1.2965007,
      "tags": {
        "ele": "1050.10",
        "ign:latitud": "42.8097574683269002",
        "ign:longitud": "-1.2965006964540000",
        "ign:red": "Red Geodesica Nacional Convencional (ROI)",
        "man_made": "survey_point",
        "name": "Zarikieta",
        "natural": "peak",
        "note": "This is a point from an official geodetic network. Use it as a reference, but do NOT move it.",
        "ref": "14268",
        "source": "Instituto Geográfico Nacional",
        "source:ref": "ftp://ftp.geodesia.ign.es"
      }
    },
    {
      "type": "node",
      "id": 948493487,
      "lat": 43.0617701,
      "lon": -1.6603818,
      "tags": {
        "alt_name": "Charuta",
        "ele": "1080.80",
        "ign:latitud": "43.0617764654898991",
        "ign:longitud": "-1.6603892919350001",
        "ign:red": "Red Geodesica Nacional Convencional (ROI)",
        "loc_name": "Larrazmendi",
        "man_made": "survey_point",
        "name": "Txaruta",
        "natural": "peak",
        "note": "This is a point from an official geodetic network. Use it as a reference, but do NOT move it.",
        "ref": "9053",
        "source": "Instituto Geográfico Nacional",
        "source:ref": "ftp://ftp.geodesia.ign.es",
        "wikidata": "Q6154191"
      }
    },
    {
      "type": "node",
      "id": 948493532,
      "lat": 42.6382861,
      "lon": -1.2864207,
      "tags": {
        "ele": "845.90",
        "ign:latitud": "42.6382861389460004",
        "ign:longitud": "-1.2864206819080000",
        "ign:red": "Red Geodesica Nacional Convencional (ROI)",
        "man_made": "survey_point",
        "name": "Trinidad",
        "name:eu": "Trinitatea",
        "natural": "peak",
        "note": "This is a point from an official geodetic network. Use it as a reference, but do NOT move it.",
        "ref": "17468",
        "source": "Instituto Geográfico Nacional",
        "source:ref": "ftp://ftp.geodesia.ign.es"
      }
    },
    {
      "type": "node",
      "id": 948493623,
      "lat": 43.1513319,
      "lon": -1.4202765,
      "tags": {
        "alt_name": "Autza",
        "ele": "1304.50",
        "ign:latitud": "43.1513319018418997",
        "ign:longitud": "-1.4202764656619900",
        "ign:red": "Red Geodesica Nacional Convencional (ROI)",
        "man_made": "survey_point",
        "name": "Hautza",
        "natural": "peak",
        "note": "This is a point from an official geodetic network. Use it as a reference, but do NOT move it.",
        "ref": "9129",
        "source": "Instituto Geográfico Nacional",
        "source:ref": "ftp://ftp.geodesia.ign.es",
        "wikidata": "Q3128667"
      }
    },
    {
      "type": "node",
      "id": 948493658,
      "lat": 42.6093906,
      "lon": -2.2563001,
      "tags": {
        "ele": "757.20",
        "ign:latitud": "42.6093906095100010",
        "ign:longitud": "-2.2563001364400002",
        "ign:red": "Red Geodesica Nacional Convencional (ROI)",
        "man_made": "survey_point",
        "name": "Monte Cabrega",
        "natural": "peak",
        "note": "This is a point from an official geodetic network. Use it as a reference, but do NOT move it.",
        "ref": "17176",
        "source": "Instituto Geográfico Nacional",
        "source:ref": "ftp://ftp.geodesia.ign.es"
      }
    },
    {
      "type": "node",
      "id": 948493739,
      "lat": 43.2053425,
      "lon": -1.7653063,
      "tags": {
        "ele": "828.90",
        "ign:latitud": "43.2053425158528981",
        "ign:longitud": "-1.7653063260960000",
        "ign:red": "Red Geodesica Nacional Convencional (ROI)",
        "man_made": "survey_point",
        "name": "Izu",
        "natural": "peak",
        "note": "This is a point from an official geodetic network. Use it as a reference, but do NOT move it.",
        "ref": "6522",
        "source": "Instituto Geográfico Nacional",
        "source:ref": "ftp://ftp.geodesia.ign.es"
      }
    },
    {
      "type": "node",
      "id": 948493829,
      "lat": 41.9840945,
      "lon": -1.7231363,
      "tags": {
        "ele": "459.30",
        "ign:latitud": "41.9840944661988971",
        "ign:longitud": "-1.7231363119059899",
        "ign:red": "Red Geodesica Nacional Convencional (ROI)",
        "man_made": "survey_point",
        "name": "Cantera",
        "natural": "peak",
        "note": "This is a point from an official geodetic network. Use it as a reference, but do NOT move it.",
        "ref": "32039",
        "source": "Instituto Geográfico Nacional",
        "source:ref": "ftp://ftp.geodesia.ign.es"
      }
    },
    {
      "type": "node",
      "id": 948493929,
      "lat": 43.2101564,
      "lon": -1.6265938,
      "tags": {
        "alt_name": "Azcua",
        "ele": "786.50",
        "ign:latitud": "43.2101564326120027",
        "ign:longitud": "-1.6265939395100000",
        "ign:red": "Red Geodesica Nacional Convencional (ROI)",
        "man_made": "survey_point",
        "name": "Azkua",
        "natural": "peak",
        "note": "This is a point from an official geodetic network. Use it as a reference, but do NOT move it.",
        "ref": "6562",
        "source": "Instituto Geográfico Nacional",
        "source:ref": "ftp://ftp.geodesia.ign.es"
      }
    },
    {
      "type": "node",
      "id": 948494256,
      "lat": 42.9845195,
      "lon": -1.7904277,
      "tags": {
        "ele": "837.50",
        "ign:latitud": "42.9845195184250031",
        "ign:longitud": "-1.7904276773259900",
        "ign:red": "Red Geodesica Nacional Convencional (ROI)",
        "man_made": "survey_point",
        "name": "Irumuga",
        "natural": "peak",
        "note": "This is a point from an official geodetic network. Use it as a reference, but do NOT move it.",
        "ref": "11519",
        "source": "Instituto Geográfico Nacional",
        "source:ref": "ftp://ftp.geodesia.ign.es"
      }
    },
    {
      "type": "node",
      "id": 948494311,
      "lat": 43.0589559,
      "lon": -1.9297938,
      "tags": {
        "ele": "956.20",
        "ign:latitud": "43.0589558842888991",
        "ign:longitud": "-1.9297937912140000",
        "ign:red": "Red Geodesica Nacional Convencional (ROI)",
        "man_made": "survey_point",
        "name": "Guratz",
        "natural": "peak",
        "note": "This is a point from an official geodetic network. Use it as a reference, but do NOT move it.",
        "ref": "8973",
        "source": "Instituto Geográfico Nacional",
        "source:ref": "ftp://ftp.geodesia.ign.es"
      }
    },
    {
      "type": "node",
      "id": 948494370,
      "lat": 42.4983118,
      "lon": -1.2863418,
      "tags": {
        "ele": "1068.60",
        "ign:latitud": "42.4983117930448984",
        "ign:longitud": "-1.2863417554650001",
        "ign:red": "Red Geodesica Nacional Convencional (ROI)",
        "man_made": "survey_point",
        "name": "Peña",
        "natural": "peak",
        "note": "This is a point from an official geodetic network. Use it as a reference, but do NOT move it.",
        "ref": "20769",
        "source": "Instituto Geográfico Nacional",
        "source:ref": "ftp://ftp.geodesia.ign.es"
      }
    },
    {
      "type": "node",
      "id": 948494411,
      "lat": 42.8895395,
      "lon": -1.5825841,
      "tags": {
        "alt_name": "Aliseto",
        "ele": "920.80",
        "ign:latitud": "42.8895394611350014",
        "ign:longitud": "-1.5825841457559899",
        "ign:red": "Red Geodesica Nacional Convencional (ROI)",
        "man_made": "survey_point",
        "name": "Elixato",
        "natural": "peak",
        "note": "This is a point from an official geodetic network. Use it as a reference, but do NOT move it.",
        "ref": "11583",
        "source": "Instituto Geográfico Nacional",
        "source:ref": "ftp://ftp.geodesia.ign.es"
      }
    },
    {
      "type": "node",
      "id": 948494583,
      "lat": 42.576717,
      "lon": -1.4294015,
      "tags": {
        "ele": "863.40",
        "ign:latitud": "42.5767170101078989",
        "ign:longitud": "-1.4294015188650000",
        "ign:red": "Red Geodesica Nacional Convencional (ROI)",
        "man_made": "survey_point",
        "name": "Santa Ágata",
        "natural": "peak",
        "note": "This is a point from an official geodetic network. Use it as a reference, but do NOT move it.",
        "ref": "17424",
        "source": "Instituto Geográfico Nacional",
        "source:ref": "ftp://ftp.geodesia.ign.es"
      }
    },
    {
      "type": "node",
      "id": 948494726,
      "lat": 42.8711914,
      "lon": -1.2429235,
      "tags": {
        "ele": "1474",
        "ign:latitud": "42.8711913993578975",
        "ign:longitud": "-1.2429235668150000",
        "ign:red": "Red Geodesica Nacional Convencional (ROI)",
        "man_made": "survey_point",
        "name": "Baigura",
        "natural": "peak",
        "note": "This is a point from an official geodetic network. Use it as a reference, but do NOT move it.",
        "ref": "11682",
        "source": "Instituto Geográfico Nacional",
        "source:ref": "ftp://ftp.geodesia.ign.es"
      }
    },
    {
      "type": "node",
      "id": 948494760,
      "lat": 42.6445912,
      "lon": -1.1956142,
      "tags": {
        "ele": "1355.80",
        "ign:latitud": "42.6445912296648970",
        "ign:longitud": "-1.1956141710710000",
        "ign:red": "Red Geodesica Nacional Convencional (ROI)",
        "man_made": "survey_point",
        "name": "Arangoiti",
        "natural": "peak",
        "note": "This is a point from an official geodetic network. Use it as a reference, but do NOT move it.",
        "ref": "17498",
        "source": "Instituto Geográfico Nacional",
        "source:ref": "ftp://ftp.geodesia.ign.es",
        "wikidata": "Q12253827"
      }
    },
    {
      "type": "node",
      "id": 948494798,
      "lat": 43.0195396,
      "lon": -1.4452202,
      "tags": {
        "alt_name": "Aldiko Kaskoa",
        "ele": "1457.10",
        "ign:latitud": "43.0195366545110005",
        "ign:longitud": "-1.4452228589930001",
        "ign:red": "Red Geodesica Nacional Convencional (ROI)",
        "man_made": "survey_point",
        "name": "Adi",
        "natural": "peak",
        "note": "This is a point from an official geodetic network. Use it as a reference, but do NOT move it.",
        "ref": "9121",
        "source": "Instituto Geográfico Nacional",
        "source:ref": "ftp://ftp.geodesia.ign.es",
        "wikidata": "Q8188242"
      }
    },
    {
      "type": "node",
      "id": 948495017,
      "lat": 42.6548195,
      "lon": -1.9246473,
      "tags": {
        "ele": "738.7",
        "ign:latitud": "42.6547925924189002",
        "ign:longitud": "-1.9246579446909899",
        "ign:red": "Red Geodesica Nacional Convencional (ROI)",
        "man_made": "survey_point",
        "name": "San Cristóbal 2",
        "name:eu": "San Kristobal baseliza",
        "natural": "peak",
        "note": "This is a point from an official geodetic network. Use it as a reference, but do NOT move it.",
        "ref": "17200",
        "source": "Instituto Geográfico Nacional",
        "source:ref": "ftp://ftp.geodesia.ign.es"
      }
    },
    {
      "type": "node",
      "id": 948495037,
      "lat": 43.2382233,
      "lon": -1.6902026,
      "tags": {
        "ele": "498.40",
        "ign:latitud": "43.2382233215760010",
        "ign:longitud": "-1.6902025954050000",
        "ign:red": "Red Geodesica Nacional Convencional (ROI)",
        "man_made": "survey_point",
        "name": "Frain",
        "natural": "peak",
        "note": "This is a point from an official geodetic network. Use it as a reference, but do NOT move it.",
        "ref": "6544",
        "source": "Instituto Geográfico Nacional",
        "source:ref": "ftp://ftp.geodesia.ign.es"
      }
    },
    {
      "type": "node",
      "id": 948495062,
      "lat": 42.0830774,
      "lon": -1.4756975,
      "tags": {
        "ele": "511.80",
        "ign:latitud": "42.0830774148668993",
        "ign:longitud": "-1.4756974807270000",
        "ign:red": "Red Geodesica Nacional Convencional (ROI)",
        "man_made": "survey_point",
        "name": "Bandera",
        "natural": "peak",
        "note": "This is a point from an official geodetic network. Use it as a reference, but do NOT move it.",
        "ref": "28315",
        "source": "Instituto Geográfico Nacional",
        "source:ref": "ftp://ftp.geodesia.ign.es"
      }
    },
    {
      "type": "node",
      "id": 948495189,
      "lat": 42.7989999,
      "lon": -2.0478384,
      "tags": {
        "ele": "1243.20",
        "ign:latitud": "42.7989998827000022",
        "ign:longitud": "-2.0478383693000000",
        "ign:red": "Red Geodesica Nacional Convencional (ROI)",
        "man_made": "survey_point",
        "name": "Dulantz",
        "natural": "peak",
        "note": "This is a point from an official geodetic network. Use it as a reference, but do NOT move it.",
        "ref": "14048",
        "source": "Instituto Geográfico Nacional",
        "source:ref": "ftp://ftp.geodesia.ign.es",
        "wikidata": "Q66384748"
      }
    },
    {
      "type": "node",
      "id": 948495205,
      "lat": 43.1739331,
      "lon": -1.5674596,
      "tags": {
        "ele": "869.80",
        "ign:latitud": "43.1739038951260028",
        "ign:longitud": "-1.5675734506250001",
        "ign:red": "Red Geodesica Nacional Convencional (ROI)",
        "name": "Legate",
        "natural": "peak",
        "note": "This is a point from an official geodetic network. Use it as a reference, but do NOT move it.",
        "ref": "6580",
        "source": "Instituto Geográfico Nacional",
        "source:ref": "ftp://ftp.geodesia.ign.es",
        "wikidata": "Q12262061"
      }
    },
    {
      "type": "node",
      "id": 948495240,
      "lat": 42.9279815,
      "lon": -1.8108784,
      "tags": {
        "alt_name": "Trinidad",
        "ele": "1094.30",
        "ign:latitud": "42.9279814974170009",
        "ign:longitud": "-1.8108782805260000",
        "ign:red": "Red Geodesica Nacional Convencional (ROI)",
        "man_made": "survey_point",
        "name": "Erga",
        "natural": "peak",
        "note": "This is a point from an official geodetic network. Use it as a reference, but do NOT move it.",
        "ref": "11515",
        "source": "Instituto Geográfico Nacional",
        "source:ref": "ftp://ftp.geodesia.ign.es",
        "wikidata": "Q6022395"
      }
    },
    {
      "type": "node",
      "id": 948495257,
      "lat": 42.5633296,
      "lon": -1.9364219,
      "tags": {
        "ele": "518.80",
        "ign:latitud": "42.5633295667338984",
        "ign:longitud": "-1.9364218801219899",
        "ign:red": "Red Geodesica Nacional Convencional (ROI)",
        "man_made": "survey_point",
        "name": "San Bartolomé",
        "natural": "peak",
        "note": "This is a point from an official geodetic network. Use it as a reference, but do NOT move it.",
        "ref": "17273",
        "source": "Instituto Geográfico Nacional",
        "source:ref": "ftp://ftp.geodesia.ign.es",
        "wikidata": "Q23992292"
      }
    },
    {
      "type": "node",
      "id": 948495281,
      "lat": 43.2099021,
      "lon": -1.4464133,
      "tags": {
        "ele": "1070.60",
        "ign:latitud": "43.2099020464950030",
        "ign:longitud": "-1.4464132476270000",
        "ign:red": "Red Geodesica Nacional Convencional (ROI)",
        "man_made": "survey_point",
        "name": "Gorramendi",
        "natural": "peak",
        "note": "This is a point from an official geodetic network. Use it as a reference, but do NOT move it.",
        "ref": "6622",
        "source": "Instituto Geográfico Nacional",
        "source:ref": "ftp://ftp.geodesia.ign.es",
        "wikidata": "Q24001120",
        "wikipedia": "eu:Gorramendi"
      }
    },
    {
      "type": "node",
      "id": 948495471,
      "lat": 42.8696987,
      "lon": -1.5036005,
      "tags": {
        "alt_name": "Lacarri",
        "ele": "1046.10",
        "ign:latitud": "42.8696986208628985",
        "ign:longitud": "-1.5036005363710001",
        "ign:red": "Red Geodesica Nacional Convencional (ROI)",
        "man_made": "survey_point",
        "name": "Lakarri",
        "natural": "peak",
        "note": "This is a point from an official geodetic network. Use it as a reference, but do NOT move it.",
        "ref": "11602",
        "source": "Instituto Geográfico Nacional",
        "source:ref": "ftp://ftp.geodesia.ign.es"
      }
    },
    {
      "type": "node",
      "id": 948495493,
      "lat": 42.5424321,
      "lon": -1.5162297,
      "tags": {
        "alt_name": "Chucho Alto",
        "ele": "930.50",
        "ign:latitud": "42.5424320847110025",
        "ign:longitud": "-1.5162296787689900",
        "ign:red": "Red Geodesica Nacional Convencional (ROI)",
        "man_made": "survey_point",
        "name": "Txutxu",
        "natural": "peak",
        "note": "This is a point from an official geodetic network. Use it as a reference, but do NOT move it.",
        "ref": "17402",
        "source": "Instituto Geográfico Nacional",
        "source:ref": "ftp://ftp.geodesia.ign.es"
      }
    },
    {
      "type": "node",
      "id": 948495516,
      "lat": 43.100626,
      "lon": -1.8396357,
      "tags": {
        "alt_name": "Eracurri",
        "ele": "1142.40",
        "ign:latitud": "43.1006367814770002",
        "ign:longitud": "-1.8396463187779899",
        "ign:red": "Red Geodesica Nacional Convencional (ROI)",
        "man_made": "survey_point",
        "name": "Irakurri",
        "natural": "peak",
        "note": "This is a point from an official geodetic network. Use it as a reference, but do NOT move it.",
        "ref": "9006",
        "source": "Instituto Geográfico Nacional",
        "source:ref": "ftp://ftp.geodesia.ign.es",
        "wikidata": "Q12259707"
      }
    },
    {
      "type": "node",
      "id": 948495565,
      "lat": 42.8917721,
      "lon": -1.3538707,
      "tags": {
        "alt_name": "Elque",
        "ele": "1293.90",
        "ign:latitud": "42.8917721262460034",
        "ign:longitud": "-1.3538705852610000",
        "ign:red": "Red Geodesica Nacional Convencional (ROI)",
        "man_made": "survey_point",
        "name": "Elke",
        "natural": "peak",
        "note": "This is a point from an official geodetic network. Use it as a reference, but do NOT move it.",
        "ref": "11643",
        "source": "Instituto Geográfico Nacional",
        "source:ref": "ftp://ftp.geodesia.ign.es"
      }
    },
    {
      "type": "node",
      "id": 948495627,
      "lat": 42.5029576,
      "lon": -1.3851148,
      "tags": {
        "ele": "888.90",
        "ign:latitud": "42.5029576110378997",
        "ign:longitud": "-1.3851148092270000",
        "ign:red": "Red Geodesica Nacional Convencional (ROI)",
        "man_made": "survey_point",
        "name": "San Pedro",
        "natural": "peak",
        "note": "This is a point from an official geodetic network. Use it as a reference, but do NOT move it.",
        "ref": "17430",
        "source": "Instituto Geográfico Nacional",
        "source:ref": "ftp://ftp.geodesia.ign.es"
      }
    },
    {
      "type": "node",
      "id": 948495676,
      "lat": 43.1498573,
      "lon": -1.6438547,
      "tags": {
        "alt_name": "Otetxon",
        "comment": "aka Oteizoian, Otexan, Oteixon, Otetxon, Oteison, Oteson",
        "ele": "685.10",
        "ign:latitud": "43.1498572786720018",
        "ign:longitud": "-1.6438548171670000",
        "ign:red": "Red Geodesica Nacional Convencional (ROI)",
        "man_made": "survey_point",
        "name": "Oteitzoiana",
        "natural": "peak",
        "note": "This is a point from an official geodetic network. Use it as a reference, but do NOT move it.",
        "ref": "9069",
        "source": "Instituto Geográfico Nacional",
        "source:ref": "ftp://ftp.geodesia.ign.es"
      }
    },
    {
      "type": "node",
      "id": 948495749,
      "lat": 42.2871304,
      "lon": -1.4520447,
      "tags": {
        "ele": "508.50",
        "ign:latitud": "42.2871304017900016",
        "ign:longitud": "-1.4520447375490000",
        "ign:red": "Red Geodesica Nacional Convencional (ROI)",
        "man_made": "survey_point",
        "name": "Cornialto",
        "natural": "peak",
        "note": "This is a point from an official geodetic network. Use it as a reference, but do NOT move it.",
        "ref": "24517",
        "source": "Instituto Geográfico Nacional",
        "source:ref": "ftp://ftp.geodesia.ign.es",
        "wikidata": "Q24001671"
      }
    },
    {
      "type": "node",
      "id": 948495779,
      "lat": 42.8450639,
      "lon": -1.1753358,
      "tags": {
        "alt_name": "Erremendia",
        "ele": "1385.80",
        "ign:latitud": "42.8450638179140029",
        "ign:longitud": "-1.1753358741300000",
        "ign:red": "Red Geodesica Nacional Convencional (ROI)",
        "man_made": "survey_point",
        "name": "Ezpondarri",
        "natural": "peak",
        "note": "This is a point from an official geodetic network. Use it as a reference, but do NOT move it.",
        "ref": "11700",
        "source": "Instituto Geográfico Nacional",
        "source:ref": "ftp://ftp.geodesia.ign.es"
      }
    },
    {
      "type": "node",
      "id": 948495935,
      "lat": 42.1275646,
      "lon": -1.5219664,
      "tags": {
        "ele": "462.40",
        "ign:latitud": "42.1275646324600004",
        "ign:longitud": "-1.5219663646729999",
        "ign:red": "Red Geodesica Nacional Convencional (ROI)",
        "man_made": "survey_point",
        "name": "Portal",
        "natural": "peak",
        "note": "This is a point from an official geodetic network. Use it as a reference, but do NOT move it.",
        "ref": "28297",
        "source": "Instituto Geográfico Nacional",
        "source:ref": "ftp://ftp.geodesia.ign.es"
      }
    },
    {
      "type": "node",
      "id": 948496190,
      "lat": 43.1907546,
      "lon": -1.589737,
      "tags": {
        "addr:municipality": "Bertizarana",
        "ele": "841.40",
        "ign:latitud": "43.1907604184820002",
        "ign:longitud": "-1.5895894162580000",
        "ign:red": "Red Geodesica Nacional Convencional (ROI)",
        "name": "Aizkolegi",
        "natural": "peak",
        "note": "This is a point from an official geodetic network. Use it as a reference, but do NOT move it.",
        "postal_code": "31720",
        "ref": "6571",
        "source": "Instituto Geográfico Nacional",
        "source:ref": "ftp://ftp.geodesia.ign.es",
        "wikidata": "Q66738452"
      }
    },
    {
      "type": "node",
      "id": 948496284,
      "lat": 42.7759464,
      "lon": -2.1503386,
      "tags": {
        "ele": "1019.20",
        "ign:latitud": "42.7759464251000026",
        "ign:longitud": "-2.1503385578000000",
        "ign:red": "Red Geodesica Nacional Convencional (ROI)",
        "man_made": "survey_point",
        "name": "Larregoiko",
        "natural": "peak",
        "note": "This is a point from an official geodetic network. Use it as a reference, but do NOT move it.",
        "ref": "14016",
        "source": "Instituto Geográfico Nacional",
        "source:ref": "ftp://ftp.geodesia.ign.es"
      }
    },
    {
      "type": "node",
      "id": 948496344,
      "lat": 42.5275579,
      "lon": -1.9319842,
      "tags": {
        "ele": "528.10",
        "ign:latitud": "42.5275579296978989",
        "ign:longitud": "-1.9319841924470000",
        "ign:red": "Red Geodesica Nacional Convencional (ROI)",
        "man_made": "survey_point",
        "name": "San Marcos",
        "natural": "peak",
        "note": "This is a point from an official geodetic network. Use it as a reference, but do NOT move it.",
        "ref": "17271",
        "source": "Instituto Geográfico Nacional",
        "source:ref": "ftp://ftp.geodesia.ign.es"
      }
    },
    {
      "type": "node",
      "id": 948496679,
      "lat": 43.0001025,
      "lon": -2.0258188,
      "tags": {
        "alt_name": "Hirumugarrieta",
        "ele": "1430",
        "ign:latitud": "43.0000991409448972",
        "ign:longitud": "-2.0258408842500000",
        "ign:red": "Red Geodesica Nacional Convencional (ROI)",
        "man_made": "survey_point",
        "name": "Intzako Dorrea",
        "natural": "peak",
        "note": "This is a point from an official geodetic network. Use it as a reference, but do NOT move it.",
        "old_name": "Soilazbizkargaina",
        "prominence": "814",
        "ref": "8940",
        "source": "Instituto Geográfico Nacional",
        "source:prominence": "http://www.peakbagger.com/list.aspx?lid=4381",
        "source:ref": "ftp://ftp.geodesia.ign.es",
        "wikidata": "Q12259656",
        "wikipedia": "eu:Soilazbizkargaña"
      }
    },
    {
      "type": "node",
      "id": 948496809,
      "lat": 42.9871272,
      "lon": -1.6607172,
      "tags": {
        "alt_name": "Arañoz",
        "ele": "840.00",
        "ign:latitud": "42.9871300939708973",
        "ign:longitud": "-1.6607322063909900",
        "ign:red": "Red Geodesica Nacional Convencional (ROI)",
        "man_made": "survey_point",
        "name": "Arañotz",
        "natural": "peak",
        "note": "This is a point from an official geodetic network. Use it as a reference, but do NOT move it.",
        "ref": "11559",
        "source": "Instituto Geográfico Nacional",
        "source:ref": "ftp://ftp.geodesia.ign.es"
      }
    },
    {
      "type": "node",
      "id": 948496866,
      "lat": 43.0444763,
      "lon": -1.8347516,
      "tags": {
        "alt_name": "Arnaitzu",
        "ele": "1203",
        "ign:latitud": "43.0444763102710013",
        "ign:longitud": "-1.8347516048029899",
        "ign:red": "Red Geodesica Nacional Convencional (ROI)",
        "man_made": "survey_point",
        "name": "Ernaitzu",
        "natural": "peak",
        "note": "This is a point from an official geodetic network. Use it as a reference, but do NOT move it.",
        "ref": "9002",
        "source": "Instituto Geográfico Nacional",
        "source:ref": "ftp://ftp.geodesia.ign.es"
      }
    },
    {
      "type": "node",
      "id": 948496889,
      "lat": 42.7794831,
      "lon": -1.513399,
      "tags": {
        "alt_name": "Laquidáin",
        "ele": "893",
        "ign:latitud": "42.7794588168928982",
        "ign:longitud": "-1.5134319046019900",
        "ign:red": "Red Geodesica Nacional Convencional (ROI)",
        "man_made": "survey_point",
        "name": "Irulegi",
        "natural": "peak",
        "note": "This is a point from an official geodetic network. Use it as a reference, but do NOT move it.",
        "ref": "14206",
        "source": "Instituto Geográfico Nacional",
        "source:ref": "ftp://ftp.geodesia.ign.es",
        "wikidata": "Q12259766"
      }
    },
    {
      "type": "node",
      "id": 948496924,
      "lat": 42.6458677,
      "lon": -1.4477986,
      "tags": {
        "ele": "1037.00",
        "ign:latitud": "42.6458676850309004",
        "ign:longitud": "-1.4477986482659899",
        "ign:red": "Red Geodesica Nacional Convencional (ROI)",
        "man_made": "survey_point",
        "name": "Lantxurda",
        "natural": "peak",
        "note": "This is a point from an official geodetic network. Use it as a reference, but do NOT move it.",
        "ref": "17428",
        "source": "Instituto Geográfico Nacional",
        "source:ref": "ftp://ftp.geodesia.ign.es",
        "wikidata": "Q66732669"
      }
    },
    {
      "type": "node",
      "id": 948496967,
      "lat": 42.9888282,
      "lon": -1.4362038,
      "tags": {
        "alt_name": "Egietako Gain",
        "ele": "1234.35",
        "ign:latitud": "42.9888282194688998",
        "ign:longitud": "-1.4362038419700001",
        "ign:red": "Red Geodesica Nacional Convencional (ROI)",
        "man_made": "survey_point",
        "name": "Tiratun",
        "natural": "peak",
        "note": "This is a point from an official geodetic network. Use it as a reference, but do NOT move it.",
        "ref": "11629",
        "source": "Instituto Geográfico Nacional",
        "source:ref": "ftp://ftp.geodesia.ign.es"
      }
    },
    {
      "type": "node",
      "id": 948497083,
      "lat": 43.1554453,
      "lon": -1.7192864,
      "tags": {
        "ele": "1130.60",
        "ign:latitud": "43.1554451768230010",
        "ign:longitud": "-1.7192864434670001",
        "ign:red": "Red Geodesica Nacional Convencional (ROI)",
        "man_made": "survey_point",
        "name": "Mendaur",
        "natural": "peak",
        "note": "This is a point from an official geodetic network. Use it as a reference, but do NOT move it.",
        "ref": "9039",
        "source": "Instituto Geográfico Nacional",
        "source:ref": "ftp://ftp.geodesia.ign.es",
        "wikidata": "Q3305754",
        "wikipedia": "eu:Mendaur"
      }
    },
    {
      "type": "node",
      "id": 948497138,
      "lat": 42.9522055,
      "lon": -1.2148756,
      "tags": {
        "ele": "1350.60",
        "ign:latitud": "42.9521841190190017",
        "ign:longitud": "-1.2148770530210000",
        "ign:red": "Red Geodesica Nacional Convencional (ROI)",
        "man_made": "survey_point",
        "name": "Berrendi",
        "natural": "peak",
        "note": "This is a point from an official geodetic network. Use it as a reference, but do NOT move it.",
        "ref": "11697",
        "source": "Instituto Geográfico Nacional",
        "source:ref": "ftp://ftp.geodesia.ign.es",
        "wikidata": "Q12255053"
      }
    },
    {
      "type": "node",
      "id": 948497195,
      "lat": 43.0459429,
      "lon": -1.559205,
      "tags": {
        "alt_name": "Sayoa",
        "comment": "ele=1418,30 m",
        "ele": "1418",
        "ign:latitud": "43.0459428530080004",
        "ign:longitud": "-1.5592078084650001",
        "ign:red": "Red Geodesica Nacional Convencional (ROI)",
        "man_made": "survey_point",
        "name": "Saioa",
        "natural": "peak",
        "note": "This is a point from an official geodetic network. Use it as a reference, but do NOT move it.",
        "ref": "9082",
        "source": "Instituto Geográfico Nacional",
        "source:ref": "ftp://ftp.geodesia.ign.es",
        "wikidata": "Q8538692"
      }
    },
    {
      "type": "node",
      "id": 990880994,
      "lat": 43.0357241,
      "lon": -1.9594775,
      "tags": { "ele": "926.22", "name": "Elosta", "natural": "peak" }
    },
    {
      "type": "node",
      "id": 1106789796,
      "lat": 42.9894619,
      "lon": -1.9864335,
      "tags": {
        "ele": "1227",
        "name": "Alborta",
        "natural": "peak",
        "wikidata": "Q12253096"
      }
    },
    {
      "type": "node",
      "id": 1106789864,
      "lat": 42.9916246,
      "lon": -1.9902761,
      "tags": {
        "ele": "1283",
        "name": "Ttutturre",
        "natural": "peak",
        "wikidata": "Q12268265",
        "wikipedia": "eu:Ttutturre"
      }
    },
    {
      "type": "node",
      "id": 1110166128,
      "lat": 42.9925532,
      "lon": -1.9971039,
      "tags": {
        "ele": "1292",
        "name": "Ttutturregi",
        "natural": "peak",
        "wikidata": "Q12268266"
      }
    },
    {
      "type": "node",
      "id": 1110166231,
      "lat": 42.9997395,
      "lon": -2.0056267,
      "tags": { "ele": "1051", "name": "Asteasu", "natural": "peak" }
    },
    {
      "type": "node",
      "id": 1115514544,
      "lat": 42.9593362,
      "lon": -0.9563468,
      "tags": {
        "ele": "1732",
        "name": "Gaztarrigaña / Mulidoiako Gaña",
        "natural": "peak"
      }
    },
    {
      "type": "node",
      "id": 1115546576,
      "lat": 42.9581443,
      "lon": -0.9200956,
      "tags": {
        "ele": "1923",
        "name": "Otsogorrigaina",
        "natural": "peak",
        "wikidata": "Q12265379"
      }
    },
    {
      "type": "node",
      "id": 1115591601,
      "lat": 42.9588581,
      "lon": -0.8972543,
      "tags": {
        "alt_name": "Belhaïn",
        "ele": "1771",
        "name": "Belhaï",
        "name:eu": "Belai",
        "natural": "peak"
      }
    },
    {
      "type": "node",
      "id": 1116018240,
      "lat": 42.9636925,
      "lon": -0.7900288,
      "tags": { "ele": "1656", "name": "Mürrübeltza", "natural": "peak" }
    },
    {
      "type": "node",
      "id": 1133018204,
      "lat": 43.0180081,
      "lon": -1.1655566,
      "tags": {
        "alt_name": "Mendi Zar",
        "ele": "1318.49",
        "name": "Mendizar",
        "natural": "peak",
        "wikidata": "Q12263429"
      }
    },
    {
      "type": "node",
      "id": 1133037846,
      "lat": 43.0191189,
      "lon": -1.2146827,
      "tags": {
        "ele": "1336.1",
        "name": "Mendilatz / Kaskoandia",
        "natural": "peak",
        "wikidata": "Q12263411"
      }
    },
    {
      "type": "node",
      "id": 1141405818,
      "lat": 43.0343604,
      "lon": -1.2976835,
      "tags": {
        "ele": "1499",
        "name": "Astobizkar",
        "natural": "peak",
        "wikidata": "Q12254326"
      }
    },
    {
      "type": "node",
      "id": 1141405821,
      "lat": 43.0406365,
      "lon": -1.2687349,
      "tags": {
        "ele": "1471",
        "name": "Txangoa",
        "natural": "peak",
        "wikidata": "Q12268324"
      }
    },
    {
      "type": "node",
      "id": 1141440345,
      "lat": 43.0025363,
      "lon": -1.4799843,
      "tags": {
        "alt_name": "Zorotepo",
        "ele": "1247.97",
        "name": "Zotalar",
        "natural": "peak"
      }
    },
    {
      "type": "node",
      "id": 1142872090,
      "lat": 42.9454303,
      "lon": -0.88112,
      "tags": { "ele": "1906", "name": "Keleta", "natural": "peak" }
    },
    {
      "type": "node",
      "id": 1142872097,
      "lat": 42.9316649,
      "lon": -0.8876892,
      "tags": { "ele": "1703", "name": "Larrondoa", "natural": "peak" }
    },
    {
      "type": "node",
      "id": 1142897713,
      "lat": 42.9514599,
      "lon": -0.8905991,
      "tags": {
        "alt_name": "Lakartxela",
        "ele": "1982",
        "name": "Kartxela",
        "natural": "peak",
        "wikidata": "Q8538704"
      }
    },
    {
      "type": "node",
      "id": 1142984775,
      "lat": 42.919411,
      "lon": -0.7275039,
      "tags": {
        "ele": "2446",
        "name": "Pico de los Tres Reyes",
        "name:ca": "Pic dels Tres Reis",
        "name:eu": "Hiru Erregeen Mahaia",
        "name:fr": "Pic des Trois Rois",
        "natural": "peak",
        "prominence": "397",
        "source:prominence": "CNIG map. Key col: 2049m",
        "wikidata": "Q546180"
      }
    },
    {
      "type": "node",
      "id": 1144639182,
      "lat": 43.0511214,
      "lon": -1.5055132,
      "tags": {
        "ele": "1259",
        "name": "Okoro",
        "natural": "peak",
        "wikidata": "Q12265057"
      }
    },
    {
      "type": "node",
      "id": 1159404314,
      "lat": 43.0264636,
      "lon": -1.35266,
      "tags": { "ele": "1213", "name": "Trona", "natural": "peak" }
    },
    {
      "type": "node",
      "id": 1159706407,
      "lat": 43.0185831,
      "lon": -1.3342386,
      "tags": {
        "ele": "1279",
        "name": "Girizu",
        "natural": "peak",
        "wikidata": "Q12258533"
      }
    },
    {
      "type": "node",
      "id": 1159755239,
      "lat": 43.029523,
      "lon": -1.4059447,
      "tags": { "ele": "1149", "name": "Behordegi", "natural": "peak" }
    },
    {
      "type": "node",
      "id": 1159762461,
      "lat": 43.0268247,
      "lon": -1.4275173,
      "tags": {
        "ele": "1338",
        "name": "Iturrunburu",
        "natural": "peak",
        "wikidata": "Q12259907"
      }
    },
    {
      "type": "node",
      "id": 1160210424,
      "lat": 43.0590797,
      "lon": -1.4888398,
      "tags": {
        "alt_name": "Argintzo",
        "ele": "1208",
        "name": "Argintzu",
        "natural": "peak"
      }
    },
    {
      "type": "node",
      "id": 1160262034,
      "lat": 43.1208379,
      "lon": -1.4465689,
      "tags": {
        "alt_name": "Mizpira",
        "ele": "749",
        "name": "Mizpirako Kaskoa",
        "natural": "peak"
      }
    },
    {
      "type": "node",
      "id": 1160985215,
      "lat": 43.170678,
      "lon": -1.4030856,
      "tags": { "ele": "853", "name": "Usatxarreta", "natural": "peak" }
    },
    {
      "type": "node",
      "id": 1161022979,
      "lat": 43.1864306,
      "lon": -1.3902856,
      "tags": {
        "ele": "838.86",
        "name": "Ttutturruko Kaskoa",
        "natural": "peak"
      }
    },
    {
      "type": "node",
      "id": 1163365805,
      "lat": 43.1917078,
      "lon": -1.4367678,
      "tags": { "ele": "718", "name": "Epelmendi", "natural": "peak" }
    },
    {
      "type": "node",
      "id": 1163365808,
      "lat": 43.1950385,
      "lon": -1.4167607,
      "tags": {
        "alt_name": "Otsomeaka",
        "comment": "aka Otsome(h)aka, Mendurain, Mendi(h)aundi",
        "ele": "811",
        "name": "Otsomehaka",
        "natural": "peak"
      }
    },
    {
      "type": "node",
      "id": 1163394601,
      "lat": 43.2186978,
      "lon": -1.432633,
      "tags": { "ele": "1090", "name": "Gorramakil", "natural": "peak" }
    },
    {
      "type": "node",
      "id": 1163474456,
      "lat": 43.2411806,
      "lon": -1.4257145,
      "tags": { "ele": "723", "name": "Okoka", "natural": "peak" }
    },
    {
      "type": "node",
      "id": 1163486828,
      "lat": 43.2334348,
      "lon": -1.4235601,
      "tags": { "ele": "956", "name": "Akomendi", "natural": "peak" }
    },
    {
      "type": "node",
      "id": 1163516894,
      "lat": 43.192989,
      "lon": -1.5334319,
      "tags": {
        "alt_name": "Larrondo",
        "ele": "853",
        "name": "Larrondoko Kaskoa",
        "natural": "peak"
      }
    },
    {
      "type": "node",
      "id": 1163526226,
      "lat": 43.1850945,
      "lon": -1.5286599,
      "tags": { "ele": "831", "name": "Ezkitz", "natural": "peak" }
    },
    {
      "type": "node",
      "id": 1163531393,
      "lat": 43.1900952,
      "lon": -1.5391204,
      "tags": {
        "alt_name": "Urruspil",
        "ele": "822",
        "name": "Urruzpil",
        "natural": "peak"
      }
    },
    {
      "type": "node",
      "id": 1164156978,
      "lat": 43.1620372,
      "lon": -1.7266889,
      "tags": {
        "ele": "1071",
        "name": "Mendieder",
        "natural": "peak",
        "wikidata": "Q12263403"
      }
    },
    {
      "type": "node",
      "id": 1164291477,
      "lat": 43.1615388,
      "lon": -1.573527,
      "tags": { "ele": "749", "name": "Larratzu", "natural": "peak" }
    },
    {
      "type": "node",
      "id": 1164321344,
      "lat": 43.1565265,
      "lon": -1.7834411,
      "tags": {
        "ele": "1048",
        "name": "Loitzate",
        "natural": "peak",
        "wikidata": "Q12262557"
      }
    },
    {
      "type": "node",
      "id": 1165674553,
      "lat": 43.0256399,
      "lon": -1.8463576,
      "tags": { "ele": "1026", "name": "Aiztondo", "natural": "peak" }
    },
    {
      "type": "node",
      "id": 1167184319,
      "lat": 42.8587247,
      "lon": -0.9718426,
      "tags": {
        "ele": "1583",
        "name": "Peñablanca/Kakueta",
        "natural": "peak",
        "wikidata": "Q12265816"
      }
    },
    {
      "type": "node",
      "id": 1167184328,
      "lat": 42.8533218,
      "lon": -1.0379265,
      "tags": {
        "alt_name": "Violeta",
        "ele": "1406",
        "name": "Migoleta",
        "natural": "peak",
        "wikidata": "Q25475860"
      }
    },
    {
      "type": "node",
      "id": 1167195993,
      "lat": 42.9517166,
      "lon": -1.0543201,
      "tags": {
        "ele": "1532.92",
        "name": "Abodi",
        "natural": "peak",
        "wikidata": "Q2821682"
      }
    },
    {
      "type": "node",
      "id": 1167195994,
      "lat": 42.9640392,
      "lon": -1.1838193,
      "tags": {
        "alt_name": "Austangain",
        "ele": "1412",
        "name": "Auztarri",
        "natural": "peak",
        "wikidata": "Q12254532"
      }
    },
    {
      "type": "node",
      "id": 1175872291,
      "lat": 42.8958376,
      "lon": -0.971496,
      "tags": { "ele": "1275", "name": "Uno", "natural": "peak" }
    },
    {
      "type": "node",
      "id": 1175872293,
      "lat": 42.9049858,
      "lon": -1.0144542,
      "tags": { "ele": "1241", "name": "Lizarraga", "natural": "peak" }
    },
    {
      "type": "node",
      "id": 1175900267,
      "lat": 42.9057088,
      "lon": -1.1466764,
      "tags": { "ele": "1103", "name": "Ilungaztelua", "natural": "peak" }
    },
    {
      "type": "node",
      "id": 1176712149,
      "lat": 43.200574,
      "lon": -1.5100375,
      "tags": { "ele": "786", "name": "Larro", "natural": "peak" }
    },
    {
      "type": "node",
      "id": 1177084296,
      "lat": 43.2157897,
      "lon": -1.5138543,
      "tags": { "ele": "844", "name": "Aizkotz", "natural": "peak" }
    },
    {
      "type": "node",
      "id": 1177229757,
      "lat": 43.2231423,
      "lon": -1.7309088,
      "tags": {
        "alt_name": "Unanua",
        "ele": "650.87",
        "name": "Unanu",
        "natural": "peak"
      }
    },
    {
      "type": "node",
      "id": 1179485586,
      "lat": 43.0126077,
      "lon": -1.5586806,
      "tags": { "ele": "1246", "name": "Eride", "natural": "peak" }
    },
    {
      "type": "node",
      "id": 1187011367,
      "lat": 42.9796698,
      "lon": -1.0213393,
      "tags": {
        "alt_name": "Mendi Txipia",
        "ele": "1628",
        "name": "Muxumurru",
        "natural": "peak"
      }
    },
    {
      "type": "node",
      "id": 1187013138,
      "lat": 42.9297115,
      "lon": -0.98537,
      "tags": { "ele": "1232", "name": "Gazteluzarra", "natural": "peak" }
    },
    {
      "type": "node",
      "id": 1187014703,
      "lat": 42.9241623,
      "lon": -0.9687746,
      "tags": {
        "alt_name": "Urruspuria",
        "ele": "1206",
        "name": "Urruzpurua",
        "natural": "peak"
      }
    },
    {
      "type": "node",
      "id": 1187020386,
      "lat": 42.8758097,
      "lon": -0.9824679,
      "tags": {
        "ele": "1415",
        "name": "Lakuaga",
        "natural": "peak",
        "wikidata": "Q25475857"
      }
    },
    {
      "type": "node",
      "id": 1187518532,
      "lat": 42.8617978,
      "lon": -1.2338295,
      "tags": { "ele": "1442", "name": "Motxorro", "natural": "peak" }
    },
    {
      "type": "node",
      "id": 1187529567,
      "lat": 42.8944571,
      "lon": -1.2469183,
      "tags": {
        "alt_name": "Bizkailuz",
        "ele": "1304",
        "name": "Bizkailuze",
        "natural": "peak"
      }
    },
    {
      "type": "node",
      "id": 1187542886,
      "lat": 42.8945154,
      "lon": -1.2384732,
      "tags": { "ele": "1276", "name": "Aginaga", "natural": "peak" }
    },
    {
      "type": "node",
      "id": 1187553490,
      "lat": 42.8986258,
      "lon": -1.2165587,
      "tags": { "ele": "1145", "name": "Mendizorrotz", "natural": "peak" }
    },
    {
      "type": "node",
      "id": 1188346258,
      "lat": 43.0205728,
      "lon": -1.1112614,
      "tags": {
        "alt_name": "Ahuntz Bide",
        "ele": "1399",
        "name": "Ahuntzbide",
        "natural": "peak"
      }
    },
    {
      "type": "node",
      "id": 1188870904,
      "lat": 42.9610597,
      "lon": -1.1323873,
      "tags": {
        "ele": "1492.12",
        "name": "Idorrokia",
        "natural": "peak",
        "wikidata": "Q12259418"
      }
    },
    {
      "type": "node",
      "id": 1188883389,
      "lat": 42.9637701,
      "lon": -1.1539115,
      "tags": {
        "ele": "1460.2",
        "name": "Goñiburu",
        "natural": "peak",
        "wikidata": "Q12258714"
      }
    },
    {
      "type": "node",
      "id": 1188889267,
      "lat": 42.9197782,
      "lon": -1.1813109,
      "tags": { "ele": "1156", "name": "Gazteluzar", "natural": "peak" }
    },
    {
      "type": "node",
      "id": 1188925875,
      "lat": 43.0392172,
      "lon": -1.3487342,
      "tags": {
        "ele": "1230",
        "name": "Atxistoi",
        "natural": "peak",
        "wikidata": "Q12254450"
      }
    },
    {
      "type": "node",
      "id": 1188964000,
      "lat": 43.2530536,
      "lon": -1.5464076,
      "tags": { "ele": "617", "name": "Mendibil", "natural": "peak" }
    },
    {
      "type": "node",
      "id": 1188982855,
      "lat": 42.9841186,
      "lon": -1.4027752,
      "tags": { "ele": "1023", "name": "Aritzarte", "natural": "peak" }
    },
    {
      "type": "node",
      "id": 1189216258,
      "lat": 43.0535545,
      "lon": -1.5877819,
      "tags": { "ele": "1291", "name": "Gartzaga", "natural": "peak" }
    },
    {
      "type": "node",
      "id": 1191557170,
      "lat": 43.1690187,
      "lon": -1.7656037,
      "tags": {
        "alt_name": "Ibintza",
        "ele": "1038.94",
        "name": "Domizko Gaina",
        "natural": "peak"
      }
    },
    {
      "type": "node",
      "id": 1191574408,
      "lat": 43.184913,
      "lon": -1.7791824,
      "tags": {
        "ele": "912",
        "name": "Beltzuntza",
        "natural": "peak",
        "wikidata": "Q66750212"
      }
    },
    {
      "type": "node",
      "id": 1191654113,
      "lat": 42.8984609,
      "lon": -1.6555122,
      "tags": { "ele": "929", "name": "Mendurro", "natural": "peak" }
    },
    {
      "type": "node",
      "id": 1191670899,
      "lat": 42.8728466,
      "lon": -1.5858043,
      "tags": { "ele": "886", "name": "Arromendi", "natural": "peak" }
    },
    {
      "type": "node",
      "id": 1191692147,
      "lat": 42.8713998,
      "lon": -1.4139284,
      "tags": { "ele": "1061", "name": "Ukua", "natural": "peak" }
    },
    {
      "type": "node",
      "id": 1191705827,
      "lat": 42.8761275,
      "lon": -1.3391929,
      "tags": {
        "alt_name": "Peñarroya",
        "ele": "1005",
        "name": "Lakorri",
        "natural": "peak"
      }
    },
    {
      "type": "node",
      "id": 1193324079,
      "lat": 42.8702439,
      "lon": -1.3096503,
      "tags": { "ele": "1166.67", "name": "Arbutxu", "natural": "peak" }
    },
    {
      "type": "node",
      "id": 1193382806,
      "lat": 42.9909704,
      "lon": -1.2627947,
      "tags": { "ele": "1206.66", "name": "Latxaga", "natural": "peak" }
    },
    {
      "type": "node",
      "id": 1193415494,
      "lat": 42.9585439,
      "lon": -1.3142023,
      "tags": { "ele": "1095", "name": "Arregia", "natural": "peak" }
    },
    {
      "type": "node",
      "id": 1193415498,
      "lat": 42.9608538,
      "lon": -1.2670009,
      "tags": { "ele": "1079", "name": "Bultzarregi", "natural": "peak" }
    },
    {
      "type": "node",
      "id": 1193464879,
      "lat": 42.9080057,
      "lon": -1.2565296,
      "tags": { "ele": "1226", "name": "Egiluzea", "natural": "peak" }
    },
    {
      "type": "node",
      "id": 1193464955,
      "lat": 42.8939199,
      "lon": -1.2653365,
      "tags": { "ele": "1259", "name": "Learpuru", "natural": "peak" }
    },
    {
      "type": "node",
      "id": 1242989952,
      "lat": 43.0404329,
      "lon": -2.0256697,
      "tags": {
        "alt_name": "Urreako Haitzak;Urraitz",
        "ele": "783.93",
        "name": "Urreagako Haitza",
        "natural": "peak",
        "source": "Instituto Geográfico Nacional",
        "source:date": "201011"
      }
    },
    {
      "type": "node",
      "id": 1243006212,
      "lat": 43.2915533,
      "lon": -1.7031611,
      "tags": {
        "ele": "286.27",
        "name": "Bonoko Kaskoa",
        "natural": "peak",
        "source": "Instituto Geográfico Nacional",
        "source:date": "201011"
      }
    },
    {
      "type": "node",
      "id": 1243007269,
      "lat": 43.0036798,
      "lon": -1.5698389,
      "tags": {
        "ele": "1091",
        "name": "Gereziain",
        "natural": "peak",
        "source": "Instituto Geográfico Nacional",
        "source:date": "201011"
      }
    },
    {
      "type": "node",
      "id": 1243007541,
      "lat": 43.0536618,
      "lon": -1.9648931,
      "tags": {
        "ele": "727.68",
        "name": "Malkorraundi",
        "natural": "peak",
        "source": "Instituto Geográfico Nacional",
        "source:date": "201011"
      }
    },
    {
      "type": "node",
      "id": 1243010105,
      "lat": 42.9477113,
      "lon": -1.276226,
      "tags": {
        "ele": "1046",
        "name": "Errondoa",
        "natural": "peak",
        "source:date": "201011"
      }
    },
    {
      "type": "node",
      "id": 1243010146,
      "lat": 42.9803046,
      "lon": -1.4433724,
      "tags": {
        "alt_name": "Astobia",
        "ele": "1106.98",
        "name": "Alto de la Salve",
        "natural": "peak",
        "source": "Instituto Geográfico Nacional",
        "source:date": "201011"
      }
    },
    {
      "type": "node",
      "id": 1243013557,
      "lat": 42.8869886,
      "lon": -0.8245066,
      "tags": {
        "ele": "1582",
        "name": "Iturruburua",
        "natural": "peak",
        "source": "Instituto Geográfico Nacional",
        "source:date": "201011"
      }
    },
    {
      "type": "node",
      "id": 1243014390,
      "lat": 43.0261592,
      "lon": -1.5622133,
      "tags": {
        "ele": "1340",
        "name": "Iturrondo",
        "natural": "peak",
        "source": "Instituto Geográfico Nacional",
        "source:date": "201011"
      }
    },
    {
      "type": "node",
      "id": 1243014637,
      "lat": 42.9119596,
      "lon": -0.9894651,
      "tags": {
        "ele": "1204",
        "name": "Beurllarneta",
        "natural": "peak",
        "source:date": "201011"
      }
    },
    {
      "type": "node",
      "id": 1243015753,
      "lat": 43.1936495,
      "lon": -1.8497387,
      "tags": {
        "ele": "350.25",
        "name": "Alduzinmendi",
        "natural": "peak",
        "source": "Instituto Geográfico Nacional",
        "source:date": "201011"
      }
    },
    {
      "type": "node",
      "id": 1243017822,
      "lat": 43.2946917,
      "lon": -1.700714,
      "tags": {
        "ele": "313.77",
        "name": "Akiler",
        "natural": "peak",
        "source": "Instituto Geográfico Nacional",
        "source:date": "201011"
      }
    },
    {
      "type": "node",
      "id": 1243018544,
      "lat": 42.7039082,
      "lon": -2.0583447,
      "tags": {
        "ele": "623",
        "name": "Bargagorria",
        "natural": "peak",
        "source:date": "201011"
      }
    },
    {
      "type": "node",
      "id": 1243018616,
      "lat": 42.8818983,
      "lon": -1.6474908,
      "tags": {
        "ele": "798",
        "name": "Makirriamendi",
        "natural": "peak",
        "source": "Instituto Geográfico Nacional",
        "source:date": "201011"
      }
    },
    {
      "type": "node",
      "id": 1243020240,
      "lat": 43.0157616,
      "lon": -1.5743451,
      "tags": {
        "ele": "1128",
        "name": "Sabiaundi",
        "natural": "peak",
        "source": "Instituto Geográfico Nacional",
        "source:date": "201011"
      }
    },
    {
      "type": "node",
      "id": 1243021251,
      "lat": 43.0188676,
      "lon": -2.0390755,
      "tags": {
        "ele": "1214",
        "name": "Elizkaitz",
        "natural": "peak",
        "source": "Instituto Geográfico Nacional",
        "source:date": "201011",
        "wikidata": "Q12256738",
        "wikipedia": "eu:Elizkaitz"
      }
    },
    {
      "type": "node",
      "id": 1243021421,
      "lat": 43.262492,
      "lon": -1.6374714,
      "tags": {
        "ele": "375.17",
        "name": "Obispo Gaina",
        "natural": "peak",
        "source": "Instituto Geográfico Nacional",
        "source:date": "201011"
      }
    },
    {
      "type": "node",
      "id": 1243022050,
      "lat": 42.9328871,
      "lon": -2.0930854,
      "tags": {
        "ele": "814",
        "name": "Fagamendi",
        "natural": "peak",
        "source:date": "201011"
      }
    },
    {
      "type": "node",
      "id": 1243022338,
      "lat": 42.9503043,
      "lon": -1.4668843,
      "tags": {
        "ele": "899.44",
        "name": "Urkamun",
        "natural": "peak",
        "source": "Instituto Geográfico Nacional",
        "source:date": "201011"
      }
    },
    {
      "type": "node",
      "id": 1243023236,
      "lat": 42.9542863,
      "lon": -1.4094491,
      "tags": {
        "ele": "782.75",
        "name": "Ospeltxiki",
        "natural": "peak",
        "source": "Instituto Geográfico Nacional",
        "source:date": "201011"
      }
    },
    {
      "type": "node",
      "id": 1243023301,
      "lat": 42.9561485,
      "lon": -0.745143,
      "tags": {
        "ele": "2053",
        "name": "Murlong",
        "name:eu": "Muruluze",
        "natural": "peak",
        "source": "Instituto Geográfico Nacional",
        "source:date": "201011"
      }
    },
    {
      "type": "node",
      "id": 1243023608,
      "lat": 43.1762954,
      "lon": -1.840519,
      "tags": {
        "ele": "519.22",
        "name": "Subelepottiki",
        "natural": "peak",
        "source": "Instituto Geográfico Nacional",
        "source:date": "201011"
      }
    },
    {
      "type": "node",
      "id": 1243024164,
      "lat": 43.1513121,
      "lon": -1.827838,
      "tags": {
        "ele": "513.71",
        "name": "Malkorburu",
        "natural": "peak",
        "source": "Instituto Geográfico Nacional",
        "source:date": "201011"
      }
    },
    {
      "type": "node",
      "id": 1243024435,
      "lat": 43.0074929,
      "lon": -1.593421,
      "tags": {
        "ele": "967.64",
        "name": "Lababota",
        "natural": "peak",
        "population": "967",
        "source": "Instituto Geográfico Nacional",
        "source:date": "201011"
      }
    },
    {
      "type": "node",
      "id": 1243025228,
      "lat": 42.9822076,
      "lon": -1.3025727,
      "tags": {
        "alt_name": "Irupagoeta",
        "ele": "1066.7",
        "name": "Hirupagoeta",
        "natural": "peak",
        "source": "Instituto Geográfico Nacional",
        "source:date": "201011"
      }
    },
    {
      "type": "node",
      "id": 1243025802,
      "lat": 42.9320041,
      "lon": -2.0860384,
      "tags": {
        "ele": "782",
        "name": "Maizegur",
        "natural": "peak",
        "source": "Mendikat",
        "source:date": "201011"
      }
    },